[
  {
    "type": "way",
    "id": 5050916,
    "center": {
      "lat": 37.8635548,
      "lon": -122.2434486
    },
    "tags": {
      "bicycle": "no",
      "foot": "yes",
      "highway": "track",
      "horse": "yes",
      "motorcar": "no",
      "motorcycle": "no",
      "name": "Stonewall-Panoramic Trail",
      "surface": "gravel",
      "tracktype": "grade2"
    }
  },
  {
    "type": "way",
    "id": 5072890,
    "center": {
      "lat": 37.8660857,
      "lon": -122.2432835
    },
    "tags": {
      "bicycle": "no",
      "foot": "yes",
      "highway": "path",
      "name": "Clark Kerr Trail",
      "surface": "dirt"
    }
  },
  {
    "type": "way",
    "id": 5149025,
    "center": {
      "lat": 37.8750199,
      "lon": -122.2356219
    },
    "tags": {
      "bicycle": "no",
      "foot": "yes",
      "highway": "track",
      "motor_vehicle": "no",
      "motorcar": "no",
      "motorcycle": "no",
      "name": "Upper Jordan Fire Trail",
      "oneway": "no",
      "surface": "compacted",
      "tracktype": "grade2"
    }
  },
  {
    "type": "way",
    "id": 5149042,
    "center": {
      "lat": 37.8705257,
      "lon": -122.2325893
    },
    "tags": {
      "bicycle": "no",
      "foot": "yes",
      "highway": "track",
      "motor_vehicle": "no",
      "motorcar": "no",
      "motorcycle": "no",
      "name": "East West Trail",
      "oneway": "no",
      "source": "https://static1.squarespace.com/static/56e612b159827e4b847675c9/t/574cc7a904426269f1dc7177/1464649650915/Claremont_Canyon.pdf",
      "surface": "dirt",
      "tracktype": "grade5"
    }
  },
  {
    "type": "way",
    "id": 5149047,
    "center": {
      "lat": 37.8748033,
      "lon": -122.2243093
    },
    "tags": {
      "bicycle": "no",
      "foot": "yes",
      "highway": "path",
      "name": "Side Hill Trail"
    }
  },
  {
    "type": "way",
    "id": 6202491,
    "center": {
      "lat": 37.9043378,
      "lon": -122.2578129
    },
    "tags": {
      "bicycle": "yes",
      "foot": "yes",
      "highway": "path",
      "motorcar": "no",
      "motorcycle": "no",
      "name": "Wildcat Gorge Trail",
      "surface": "ground"
    }
  },
  {
    "type": "way",
    "id": 6202494,
    "center": {
      "lat": 37.9062933,
      "lon": -122.2540867
    },
    "tags": {
      "bicycle": "yes",
      "dog": "yes",
      "foot": "yes",
      "highway": "path",
      "horse": "yes",
      "incline": "10%",
      "lit": "no",
      "motorcar": "no",
      "motorcycle": "no",
      "name": "Meadows Canyon Trail",
      "smoothness": "bad",
      "surface": "dirt",
      "tracktype": "grade2",
      "wheelchair": "no",
      "width": "3"
    }
  },
  {
    "type": "way",
    "id": 6202498,
    "center": {
      "lat": 37.8965084,
      "lon": -122.2470219
    },
    "tags": {
      "bicycle": "yes",
      "foot": "yes",
      "highway": "track",
      "horse": "yes",
      "motor_vehicle": "no",
      "motorcar": "no",
      "motorcycle": "no",
      "name": "Mineral Springs Trail",
      "surface": "dirt"
    }
  },
  {
    "type": "way",
    "id": 6318467,
    "center": {
      "lat": 37.8698592,
      "lon": -122.2422873
    },
    "tags": {
      "bicycle": "no",
      "check_date:surface": "2025-11-22",
      "foot": "yes",
      "highway": "track",
      "motor_vehicle": "no",
      "motorcar": "no",
      "motorcycle": "no",
      "name": "Upper Jordan Fire Trail",
      "oneway": "no",
      "surface": "unpaved",
      "tiger:cfcc": "A51",
      "tiger:county": "Alameda, CA",
      "tiger:reviewed": "yes",
      "tracktype": "grade1"
    }
  },
  {
    "type": "way",
    "id": 6319041,
    "center": {
      "lat": 37.5604001,
      "lon": -121.7060897
    },
    "tags": {
      "bicycle": "no",
      "foot": "yes",
      "highway": "track",
      "horse": "yes",
      "motor_vehicle": "no",
      "name": "Rocky Ridge Trail",
      "tiger:cfcc": "A41",
      "tiger:county": "Alameda, CA",
      "tiger:reviewed": "yes"
    }
  },
  {
    "type": "way",
    "id": 6320633,
    "center": {
      "lat": 37.6354913,
      "lon": -121.7729929
    },
    "tags": {
      "bicycle": "yes",
      "foot": "yes",
      "highway": "path",
      "horse": "yes",
      "name": "Winery Loop",
      "surface": "unpaved",
      "tiger:cfcc": "A41",
      "tiger:county": "Alameda, CA",
      "tiger:reviewed": "no"
    }
  },
  {
    "type": "way",
    "id": 6320960,
    "center": {
      "lat": 37.579583,
      "lon": -121.6834779
    },
    "tags": {
      "highway": "track",
      "lanes": "1",
      "name": "Oak Grove Trail",
      "surface": "unpaved",
      "tiger:cfcc": "A41",
      "tiger:county": "Alameda, CA",
      "tiger:reviewed": "no"
    }
  },
  {
    "type": "way",
    "id": 6321870,
    "center": {
      "lat": 37.5940557,
      "lon": -121.7162678
    },
    "tags": {
      "bicycle": "yes",
      "foot": "yes",
      "highway": "track",
      "horse": "yes",
      "motor_vehicle": "no",
      "name": "Ridgeline Trail"
    }
  },
  {
    "type": "way",
    "id": 6323515,
    "center": {
      "lat": 37.5933847,
      "lon": -121.7106963
    },
    "tags": {
      "bicycle": "yes",
      "foot": "yes",
      "highway": "track",
      "horse": "yes",
      "motor_vehicle": "no",
      "name": "Hetch Hetchy Trail"
    }
  },
  {
    "type": "way",
    "id": 6325424,
    "center": {
      "lat": 37.621273,
      "lon": -121.9014795
    },
    "tags": {
      "bicycle": "yes",
      "foot": "yes",
      "highway": "track",
      "motor_vehicle": "no",
      "name": "Thermalito Trail",
      "source": "Bing Maps",
      "surface": "dirt",
      "tiger:cfcc": "A51",
      "tiger:county": "Alameda, CA",
      "tiger:reviewed": "no",
      "tracktype": "grade2"
    }
  },
  {
    "type": "way",
    "id": 6325447,
    "center": {
      "lat": 37.5907074,
      "lon": -121.6845165
    },
    "tags": {
      "bicycle": "yes",
      "foot": "yes",
      "highway": "track",
      "horse": "yes",
      "motor_vehicle": "no",
      "name": "Cedar Creek Trail"
    }
  },
  {
    "type": "way",
    "id": 6331969,
    "center": {
      "lat": 37.5322477,
      "lon": -121.9074781
    },
    "tags": {
      "bicycle": "no",
      "highway": "track",
      "name": "YSC Trail",
      "tiger:cfcc": "A51",
      "tiger:county": "Alameda, CA",
      "tiger:name_base": "YSC",
      "tiger:name_type": "Trl",
      "tiger:reviewed": "no"
    }
  },
  {
    "type": "way",
    "id": 6335453,
    "center": {
      "lat": 37.8570993,
      "lon": -122.2432299
    },
    "tags": {
      "foot": "yes",
      "highway": "footway",
      "name": "Oakridge Path",
      "surface": "paved",
      "tiger:cfcc": "A41",
      "tiger:county": "Alameda, CA",
      "tiger:name_base": "Oak Ridge",
      "tiger:name_base_1": "Oak Ridge",
      "tiger:name_type": "Rd",
      "tiger:name_type_1": "Path",
      "tiger:reviewed": "no"
    }
  },
  {
    "type": "way",
    "id": 6344800,
    "center": {
      "lat": 37.8576297,
      "lon": -122.2387035
    },
    "tags": {
      "highway": "footway",
      "name": "Sunset Trail",
      "name_1": "Sunset Trail",
      "tiger:cfcc": "A41",
      "tiger:county": "Alameda, CA",
      "tiger:name_base": "Eucalyptus",
      "tiger:name_base_1": "Sunset",
      "tiger:name_type": "Path",
      "tiger:name_type_1": "Trl",
      "tiger:reviewed": "no"
    }
  },
  {
    "type": "way",
    "id": 6347058,
    "center": {
      "lat": 37.794544,
      "lon": -122.0825681
    },
    "tags": {
      "access": "private",
      "highway": "track",
      "name": "Kaiser Creek Road",
      "surface": "unpaved",
      "tiger:cfcc": "A41",
      "tiger:county": "Alameda, CA",
      "tiger:name_base": "Miller",
      "tiger:name_type": "Rd"
    }
  },
  {
    "type": "way",
    "id": 6347887,
    "center": {
      "lat": 37.7818859,
      "lon": -122.1526429
    },
    "tags": {
      "highway": "path",
      "name": "Pyrite Trail",
      "note": "TODO: GPS",
      "surface": "unpaved",
      "tiger:cfcc": "A41",
      "tiger:county": "Alameda, CA",
      "tiger:name_base": "O Hanneson",
      "tiger:name_type": "Rd",
      "tiger:reviewed": "no"
    }
  },
  {
    "type": "way",
    "id": 6353349,
    "center": {
      "lat": 37.7815913,
      "lon": -122.1547945
    },
    "tags": {
      "highway": "path",
      "motor_vehicle": "no",
      "name": "Leona Trail",
      "surface": "unpaved",
      "tiger:cfcc": "A41",
      "tiger:county": "Alameda, CA",
      "tiger:name_base": "Margie;Rifle Range",
      "tiger:name_type": "Ln;Rd",
      "tiger:reviewed": "no"
    }
  },
  {
    "type": "way",
    "id": 6360698,
    "center": {
      "lat": 37.5310507,
      "lon": -121.9041065
    },
    "tags": {
      "highway": "track",
      "name": "Spring Valley Trail",
      "tiger:cfcc": "A51",
      "tiger:county": "Alameda, CA",
      "tiger:name_base": "Spring Valley",
      "tiger:name_type": "Trl",
      "tiger:reviewed": "no",
      "tiger:separated": "no",
      "tiger:source": "tiger_import_dch_v0.6_20070809",
      "tiger:tlid": "125066308:125034645:125034646:125066339:125066340"
    }
  },
  {
    "type": "way",
    "id": 6361753,
    "center": {
      "lat": 37.7844152,
      "lon": -122.1502625
    },
    "tags": {
      "highway": "path",
      "motor_vehicle": "no",
      "name": "Artemisia Trail",
      "surface": "unpaved",
      "tiger:cfcc": "A41",
      "tiger:county": "Alameda, CA",
      "tiger:name_base": "Richmond",
      "tiger:name_type": "Rd",
      "tiger:reviewed": "no"
    }
  },
  {
    "type": "way",
    "id": 6362119,
    "center": {
      "lat": 37.8964215,
      "lon": -122.2786372
    },
    "tags": {
      "highway": "footway",
      "incline": "down",
      "name": "Indian Trail",
      "surface": "stone",
      "tiger:cfcc": "A41",
      "tiger:county": "Alameda, CA",
      "tiger:name_base": "Indian",
      "tiger:name_type": "Trl",
      "wheelchair": "no"
    }
  },
  {
    "type": "way",
    "id": 6368408,
    "center": {
      "lat": 37.7778078,
      "lon": -122.0857124
    },
    "tags": {
      "access": "private",
      "highway": "track",
      "motor_vehicle": "no",
      "name": "Riley Ridge Road",
      "surface": "dirt",
      "tiger:cfcc": "A41",
      "tiger:county": "Alameda, CA",
      "tiger:name_base": "Riley Ridge",
      "tiger:name_type": "Rd",
      "tiger:reviewed": "no"
    }
  },
  {
    "type": "way",
    "id": 6374786,
    "center": {
      "lat": 37.5335102,
      "lon": -121.9067423
    },
    "tags": {
      "highway": "track",
      "name": "Dry Creek Trail",
      "tiger:cfcc": "A51",
      "tiger:county": "Alameda, CA",
      "tiger:name_base": "Dry Creek",
      "tiger:name_type": "Trl",
      "tiger:reviewed": "no",
      "tiger:separated": "no",
      "tiger:source": "tiger_import_dch_v0.6_20070809",
      "tiger:tlid": "125066336:125066337:125034603"
    }
  },
  {
    "type": "way",
    "id": 6382600,
    "center": {
      "lat": 37.5336541,
      "lon": -121.9103689
    },
    "tags": {
      "highway": "track",
      "name": "Panorama Trail",
      "tiger:cfcc": "A51",
      "tiger:county": "Alameda, CA",
      "tiger:name_base": "Panorama",
      "tiger:name_type": "Trl",
      "tiger:reviewed": "no",
      "tiger:separated": "no",
      "tiger:source": "tiger_import_dch_v0.6_20070809",
      "tiger:tlid": "125082319:125033893:125066330"
    }
  },
  {
    "type": "way",
    "id": 6382655,
    "center": {
      "lat": 37.5364297,
      "lon": -121.9114718
    },
    "tags": {
      "highway": "track",
      "name": "Panorama Trail",
      "tiger:cfcc": "A51",
      "tiger:county": "Alameda, CA",
      "tiger:name_base": "Panorama",
      "tiger:name_type": "Trl",
      "tiger:reviewed": "no",
      "tiger:separated": "no",
      "tiger:source": "tiger_import_dch_v0.6_20070809",
      "tiger:tlid": "125066304:125066305:125058023:125058024:125034602:125034606:125034607"
    }
  },
  {
    "type": "way",
    "id": 6389508,
    "center": {
      "lat": 37.5513657,
      "lon": -121.7575833
    },
    "tags": {
      "highway": "track",
      "name": "Welch Creek Road",
      "tiger:cfcc": "A41",
      "tiger:county": "Alameda, CA",
      "tiger:name_base": "Welch Creek",
      "tiger:name_type": "Rd",
      "tiger:reviewed": "no"
    }
  },
  {
    "type": "way",
    "id": 6389531,
    "center": {
      "lat": 37.5350768,
      "lon": -121.769592
    },
    "tags": {
      "highway": "track",
      "name": "Welch Creek Road",
      "tiger:cfcc": "A41",
      "tiger:county": "Alameda, CA",
      "tiger:name_base": "Welch Creek",
      "tiger:name_type": "Rd",
      "tiger:reviewed": "no"
    }
  },
  {
    "type": "way",
    "id": 6389568,
    "center": {
      "lat": 37.5321898,
      "lon": -121.7614563
    },
    "tags": {
      "highway": "track",
      "name": "Welch Creek Road",
      "tiger:cfcc": "A41",
      "tiger:county": "Alameda, CA",
      "tiger:name_base": "Welch Creek",
      "tiger:name_type": "Rd",
      "tiger:reviewed": "no"
    }
  },
  {
    "type": "way",
    "id": 6389598,
    "center": {
      "lat": 37.5047393,
      "lon": -121.7755811
    },
    "tags": {
      "highway": "track",
      "name": "Welch Creek Road",
      "tiger:cfcc": "A41",
      "tiger:county": "Alameda, CA",
      "tiger:name_base": "Welch Creek",
      "tiger:name_type": "Rd",
      "tiger:reviewed": "no",
      "tiger:separated": "no",
      "tiger:source": "tiger_import_dch_v0.6_20070809",
      "tiger:tlid": "125066574:125066575"
    }
  },
  {
    "type": "way",
    "id": 6389637,
    "center": {
      "lat": 37.5175635,
      "lon": -121.7627726
    },
    "tags": {
      "highway": "track",
      "name": "Welch Creek Road",
      "tiger:cfcc": "A41",
      "tiger:county": "Alameda, CA",
      "tiger:name_base": "Welch Creek",
      "tiger:name_type": "Rd",
      "tiger:reviewed": "no"
    }
  },
  {
    "type": "way",
    "id": 6394461,
    "center": {
      "lat": 37.7392751,
      "lon": -122.133421
    },
    "tags": {
      "highway": "path",
      "name": "Jeep Trail",
      "tiger:cfcc": "A51",
      "tiger:county": "Alameda, CA",
      "tiger:name_base": "Jeep",
      "tiger:name_type": "Trl",
      "tiger:reviewed": "no"
    }
  },
  {
    "type": "way",
    "id": 7703373,
    "center": {
      "lat": 38.4282205,
      "lon": -123.0447116
    },
    "tags": {
      "bicycle": "yes",
      "foot": "yes",
      "highway": "path",
      "name": "Lower Old Barn Trail",
      "tiger:cfcc": "A51",
      "tiger:county": "Sonoma, CA",
      "tiger:reviewed": "no"
    }
  },
  {
    "type": "way",
    "id": 7705349,
    "center": {
      "lat": 38.3318955,
      "lon": -123.0692153
    },
    "tags": {
      "foot": "yes",
      "highway": "footway",
      "horse": "yes",
      "name": "Lower Dunes Trail",
      "tiger:cfcc": "A51",
      "tiger:county": "Sonoma, CA"
    }
  },
  {
    "type": "way",
    "id": 7706469,
    "center": {
      "lat": 38.3329325,
      "lon": -123.0666081
    },
    "tags": {
      "foot": "yes",
      "highway": "footway",
      "horse": "no",
      "name": "Jack Rabbit Trail",
      "tiger:cfcc": "A51",
      "tiger:county": "Sonoma, CA"
    }
  },
  {
    "type": "way",
    "id": 7706475,
    "center": {
      "lat": 38.3297291,
      "lon": -123.0665971
    },
    "tags": {
      "foot": "yes",
      "highway": "footway",
      "horse": "no",
      "name": "Scrub Jay Trail",
      "tiger:cfcc": "A51",
      "tiger:county": "Sonoma, CA"
    }
  },
  {
    "type": "way",
    "id": 7714638,
    "center": {
      "lat": 38.3163896,
      "lon": -123.0368993
    },
    "tags": {
      "covered": "no",
      "dog": "leashed",
      "highway": "path",
      "name": "Cheney Creek Trail",
      "stroller": "yes",
      "surface": "unpaved",
      "tiger:cfcc": "A41",
      "tiger:county": "Sonoma, CA",
      "tiger:name_base": "King",
      "tiger:name_direction_prefix": "W",
      "tiger:name_type": "Trl",
      "tiger:reviewed": "no",
      "wheelchair": "yes",
      "width": "2"
    }
  },
  {
    "type": "way",
    "id": 7716362,
    "center": {
      "lat": 38.3967871,
      "lon": -122.692771
    },
    "tags": {
      "highway": "track",
      "name": "Hopi Trail",
      "tiger:cfcc": "A41",
      "tiger:county": "Sonoma, CA",
      "tiger:name_base": "Hopi",
      "tiger:name_type": "Trl",
      "tiger:reviewed": "no"
    }
  },
  {
    "type": "way",
    "id": 7716773,
    "center": {
      "lat": 38.4837984,
      "lon": -123.0123999
    },
    "tags": {
      "highway": "footway",
      "name": "Summer Bridge",
      "tiger:cfcc": "A41",
      "tiger:county": "Sonoma, CA",
      "tiger:name_base": "Summer",
      "tiger:name_type": "Brg",
      "tiger:reviewed": "no"
    }
  },
  {
    "type": "way",
    "id": 7718404,
    "center": {
      "lat": 38.3605503,
      "lon": -123.0283664
    },
    "tags": {
      "access": "private",
      "highway": "track",
      "name": "Salmon Creek Road",
      "tiger:cfcc": "A41",
      "tiger:county": "Sonoma, CA",
      "tiger:name_base": "Salmon Creek",
      "tiger:name_type": "Rd",
      "tiger:reviewed": "no"
    }
  },
  {
    "type": "way",
    "id": 7719421,
    "center": {
      "lat": 38.463865,
      "lon": -123.0233525
    },
    "tags": {
      "highway": "track",
      "name": "Deer Trail",
      "tiger:cfcc": "A51",
      "tiger:county": "Sonoma, CA",
      "tiger:name_base": "Deer",
      "tiger:name_type": "Trl",
      "tiger:reviewed": "no"
    }
  },
  {
    "type": "way",
    "id": 7853322,
    "center": {
      "lat": 37.9497399,
      "lon": -122.0007895
    },
    "tags": {
      "highway": "path",
      "name": "California Riding and Hiking Trail",
      "surface": "unpaved",
      "tiger:cfcc": "A51",
      "tiger:county": "Contra Costa, CA",
      "tiger:reviewed": "no",
      "website": "https://www.ebparks.org/trails/interpark/california-riding-hiking"
    }
  },
  {
    "type": "way",
    "id": 7853510,
    "center": {
      "lat": 37.9424581,
      "lon": -121.8161394
    },
    "tags": {
      "bicycle": "yes",
      "foot": "yes",
      "highway": "path",
      "horse": "yes",
      "name": "Star Mine Trail",
      "source": "Black Diamond Mines Regional Preserve Map and Strava Heat map",
      "surface": "ground"
    }
  },
  {
    "type": "way",
    "id": 7853857,
    "center": {
      "lat": 37.9228564,
      "lon": -122.2988613
    },
    "tags": {
      "description": "the Ridge Trail connects King Court to Regency Court along the upper east side of the park.",
      "highway": "footway",
      "image": "http://ectrailtrekkers.org/2013/12/27/trail-of-the-week-2-the-ridge-trail-30/",
      "name": "Ridge Trail",
      "surface": "dirt",
      "tiger:cfcc": "A41",
      "tiger:county": "Contra Costa, CA"
    }
  },
  {
    "type": "way",
    "id": 7853879,
    "center": {
      "lat": 37.952411,
      "lon": -121.8380535
    },
    "tags": {
      "bicycle": "yes",
      "foot": "yes",
      "highway": "path",
      "horse": "yes",
      "name": "Ridge Trail",
      "source": "Black Diamond Mines Regional Preserve Map and Strava Heat map",
      "surface": "unpaved"
    }
  },
  {
    "type": "way",
    "id": 7854005,
    "center": {
      "lat": 38.0303452,
      "lon": -122.1720136
    },
    "tags": {
      "access": "no",
      "bicycle": "yes",
      "foot": "yes",
      "highway": "path",
      "horse": "yes",
      "motor_vehicle": "private",
      "name": "George Miller Regional Trail",
      "surface": "asphalt"
    }
  },
  {
    "type": "way",
    "id": 7854219,
    "center": {
      "lat": 37.9241114,
      "lon": -122.3005093
    },
    "tags": {
      "description": "Per the El Cerrito Trail Trekker pdf:  Trailhead is a paved road between 1432 and 1440 Navellier Street, turning into a steep dirt  re road soon. Crosses\nthe Ridge and Live Oak trails and ends near the mouth of Regency Ct.   http://ectrailtrekkers.org/201",
      "foot": "yes",
      "highway": "footway",
      "incline": "20%",
      "name": "Navellier Trail",
      "surface": "dirt",
      "tiger:cfcc": "A41",
      "tiger:county": "Contra Costa, CA"
    }
  },
  {
    "type": "way",
    "id": 7854224,
    "center": {
      "lat": 37.919987,
      "lon": -122.30055
    },
    "tags": {
      "highway": "footway",
      "name": "Forest Brown Trail",
      "surface": "dirt",
      "tiger:cfcc": "A41",
      "width": "2"
    }
  },
  {
    "type": "way",
    "id": 7854960,
    "center": {
      "lat": 37.8907119,
      "lon": -122.231836
    },
    "tags": {
      "bicycle": "yes",
      "highway": "path",
      "horse": "yes",
      "motor_vehicle": "no",
      "name": "Upper Big Springs Canyon Trail",
      "tiger:cfcc": "A41",
      "tiger:county": "Contra Costa, CA",
      "tiger:name_base": "Big Springs Canyon",
      "tiger:name_type": "Rd",
      "tiger:reviewed": "no",
      "tracktype": "grade2"
    }
  },
  {
    "type": "way",
    "id": 7856924,
    "center": {
      "lat": 37.9731289,
      "lon": -122.1892253
    },
    "tags": {
      "access": "private",
      "highway": "track",
      "name": "Feeder Trail #1",
      "surface": "unpaved",
      "tiger:cfcc": "A41",
      "tiger:county": "Contra Costa, CA",
      "tiger:name_base": "Pereira",
      "tiger:name_type": "Rd"
    }
  },
  {
    "type": "way",
    "id": 7857298,
    "center": {
      "lat": 37.909799,
      "lon": -121.8977084
    },
    "tags": {
      "access": "private",
      "highway": "track",
      "name": "East Trail",
      "tiger:cfcc": "A51",
      "tiger:county": "Contra Costa, CA",
      "tiger:name_base": "East",
      "tiger:name_type": "Trl",
      "tiger:reviewed": "no"
    }
  },
  {
    "type": "way",
    "id": 7858759,
    "center": {
      "lat": 37.9441486,
      "lon": -122.2746206
    },
    "tags": {
      "highway": "track",
      "motor_vehicle": "no",
      "name": "Fire Trail No 3",
      "tiger:cfcc": "A41",
      "tiger:county": "Contra Costa, CA",
      "tiger:name_base": "Fire Trail No 3",
      "tiger:reviewed": "no"
    }
  },
  {
    "type": "way",
    "id": 7858761,
    "center": {
      "lat": 37.9273465,
      "lon": -122.2743607
    },
    "tags": {
      "bicycle": "yes",
      "foot": "yes",
      "highway": "path",
      "horse": "yes",
      "motor_vehicle": "no",
      "motorcar": "no",
      "motorcycle": "no",
      "name": "Conlon Trail",
      "tiger:cfcc": "A41",
      "tiger:county": "Contra Costa, CA",
      "tiger:name_base": "Fire Trail No 3",
      "tiger:reviewed": "no"
    }
  },
  {
    "type": "way",
    "id": 7861654,
    "center": {
      "lat": 37.987944,
      "lon": -122.1500376
    },
    "tags": {
      "bicycle": "yes",
      "foot": "yes",
      "highway": "path",
      "horse": "yes",
      "motor_vehicle": "no",
      "name": "Contra Costa Feeder Trail #1",
      "surface": "dirt",
      "tiger:cfcc": "A41",
      "tiger:county": "Contra Costa, CA",
      "tiger:name_base": "Dutra",
      "tiger:name_type": "Rd",
      "tiger:reviewed": "no",
      "width": "3"
    }
  },
  {
    "type": "way",
    "id": 7865328,
    "center": {
      "lat": 37.9596121,
      "lon": -121.823744
    },
    "tags": {
      "bicycle": "yes",
      "foot": "yes",
      "highway": "path",
      "horse": "yes",
      "name": "Stewartville Trail",
      "source": "Black Diamond Mines Regional Preserve Map and Strava Heat map",
      "surface": "ground"
    }
  },
  {
    "type": "way",
    "id": 7865582,
    "center": {
      "lat": 37.8082177,
      "lon": -122.0694045
    },
    "tags": {
      "access": "permit",
      "bicycle": "no",
      "highway": "track",
      "motor_vehicle": "no",
      "name": "Rocky Ridge Trail",
      "tiger:cfcc": "A41",
      "tiger:county": "Contra Costa, CA",
      "tiger:name_base": "Rocky Ridge",
      "tiger:name_type": "Rd",
      "tiger:reviewed": "no"
    }
  },
  {
    "type": "way",
    "id": 7866157,
    "center": {
      "lat": 37.9524015,
      "lon": -121.9954801
    },
    "tags": {
      "foot": "yes",
      "highway": "path",
      "name": "California Riding and Hiking Trail",
      "tiger:cfcc": "A51",
      "tiger:county": "Contra Costa, CA",
      "tiger:name_base": "Regional",
      "tiger:name_type": "Trl",
      "tiger:reviewed": "no",
      "website": "https://www.ebparks.org/trails/interpark/california-riding-hiking"
    }
  },
  {
    "type": "way",
    "id": 7870306,
    "center": {
      "lat": 37.8990645,
      "lon": -122.0117442
    },
    "tags": {
      "bicycle": "yes",
      "cycleway:both": "shared_lane",
      "cycleway:both:lane": "pictogram",
      "foot": "yes",
      "highway": "track",
      "horse": "yes",
      "motor_vehicle": "no",
      "motorcycle": "no",
      "name": "Costanoan Trail",
      "surface": "dirt",
      "tracktype": "grade2"
    }
  },
  {
    "type": "way",
    "id": 7873931,
    "center": {
      "lat": 37.9106578,
      "lon": -122.2648044
    },
    "tags": {
      "bicycle": "yes",
      "highway": "path",
      "horse": "yes",
      "motor_vehicle": "no",
      "motorcar": "no",
      "motorcycle": "no",
      "name": "Loop Road",
      "surface": "gravel",
      "tiger:cfcc": "A41",
      "tiger:county": "Contra Costa, CA",
      "tiger:name_base": "Loop",
      "tiger:name_type": "Dr"
    }
  },
  {
    "type": "way",
    "id": 7877098,
    "center": {
      "lat": 37.8684301,
      "lon": -122.06252
    },
    "tags": {
      "access": "private",
      "highway": "track",
      "name": "Jeep Trail",
      "tiger:cfcc": "A51",
      "tiger:county": "Contra Costa, CA",
      "tiger:name_base": "Jeep",
      "tiger:name_type": "Trl",
      "tiger:reviewed": "no"
    }
  },
  {
    "type": "way",
    "id": 7878023,
    "center": {
      "lat": 37.9539841,
      "lon": -121.9773402
    },
    "tags": {
      "bicycle": "designated",
      "foot": "yes",
      "highway": "footway",
      "lit": "no",
      "name": "Lake Trail",
      "surface": "gravel"
    }
  },
  {
    "type": "way",
    "id": 7880973,
    "center": {
      "lat": 37.8021044,
      "lon": -122.0688469
    },
    "tags": {
      "access": "private",
      "highway": "track",
      "name": "Kaiser Creek Road",
      "tiger:cfcc": "A41",
      "tiger:county": "Contra Costa, CA",
      "tiger:name_base": "Kaiser Creek",
      "tiger:name_type": "Rd",
      "tiger:reviewed": "no"
    }
  },
  {
    "type": "way",
    "id": 7881681,
    "center": {
      "lat": 37.8354944,
      "lon": -122.0942326
    },
    "tags": {
      "highway": "path",
      "mtb:scale": "1",
      "mtb:scale:uphill": "1",
      "name": "Old Moraga Ranch Trail",
      "surface": "dirt",
      "tiger:cfcc": "A41",
      "tiger:county": "Contra Costa, CA",
      "tiger:name_base": "Old Moraga Ranch",
      "tiger:name_type": "Trl",
      "tiger:reviewed": "no",
      "tracktype": "grade4"
    }
  },
  {
    "type": "way",
    "id": 7917274,
    "center": {
      "lat": 37.8837357,
      "lon": -122.23829
    },
    "tags": {
      "bicycle": "no",
      "foot": "yes",
      "highway": "path",
      "name": "Grizzly Peak Trail",
      "surface": "ground"
    }
  },
  {
    "type": "way",
    "id": 7917275,
    "center": {
      "lat": 37.8826825,
      "lon": -122.2303395
    },
    "tags": {
      "bicycle": "no",
      "foot": "yes",
      "highway": "path",
      "name": "Grizzly Peak Trail",
      "surface": "ground"
    }
  },
  {
    "type": "way",
    "id": 7917277,
    "center": {
      "lat": 37.8864613,
      "lon": -122.2303988
    },
    "tags": {
      "bicycle": "yes",
      "foot": "yes",
      "highway": "path",
      "horse": "yes",
      "motor_vehicle": "no",
      "name": "Vollmer Peak Trail"
    }
  },
  {
    "type": "way",
    "id": 7917278,
    "center": {
      "lat": 37.8838423,
      "lon": -122.2244329
    },
    "tags": {
      "bicycle": "no",
      "foot": "yes",
      "highway": "path",
      "horse": "yes",
      "name": "Vollmer Peak Trail",
      "surface": "ground"
    }
  },
  {
    "type": "way",
    "id": 7917280,
    "center": {
      "lat": 37.8868049,
      "lon": -122.2291956
    },
    "tags": {
      "bicycle": "no",
      "foot": "yes",
      "highway": "path",
      "horse": "yes",
      "name": "Lupine Trail",
      "surface": "ground"
    }
  },
  {
    "type": "way",
    "id": 7917282,
    "center": {
      "lat": 37.882018,
      "lon": -122.2316946
    },
    "tags": {
      "bicycle": "no",
      "foot": "yes",
      "highway": "path",
      "motor_vehicle": "no",
      "name": "Tower Trail",
      "surface": "ground"
    }
  },
  {
    "type": "way",
    "id": 7917283,
    "center": {
      "lat": 37.8829142,
      "lon": -122.226564
    },
    "tags": {
      "highway": "track",
      "motor_vehicle": "no",
      "name": "Vollmer Peak Trail"
    }
  },
  {
    "type": "way",
    "id": 7917284,
    "center": {
      "lat": 37.8827265,
      "lon": -122.2218661
    },
    "tags": {
      "bicycle": "yes",
      "highway": "track",
      "motor_vehicle": "private",
      "motorcar": "no",
      "motorcycle": "no",
      "name": "Seaview Trail",
      "surface": "asphalt",
      "tracktype": "grade1"
    }
  },
  {
    "type": "way",
    "id": 7917289,
    "center": {
      "lat": 37.8846362,
      "lon": -122.2411259
    },
    "tags": {
      "bicycle": "yes",
      "foot": "yes",
      "highway": "track",
      "horse": "yes",
      "motor_vehicle": "no",
      "motorcar": "no",
      "motorcycle": "no",
      "name": "Redwood Trail",
      "surface": "unpaved",
      "tracktype": "grade4"
    }
  },
  {
    "type": "way",
    "id": 7979606,
    "center": {
      "lat": 37.8957793,
      "lon": -122.2437415
    },
    "tags": {
      "bicycle": "yes",
      "highway": "path",
      "horse": "yes",
      "motorcar": "no",
      "motorcycle": "no",
      "mtb:scale": "1",
      "name": "Quarry Trail"
    }
  },
  {
    "type": "way",
    "id": 7979607,
    "center": {
      "lat": 37.8962923,
      "lon": -122.2408374
    },
    "tags": {
      "bicycle": "yes",
      "highway": "path",
      "horse": "yes",
      "motorcar": "no",
      "motorcycle": "no",
      "name": "Lower Big Springs Trail",
      "tracktype": "grade2",
      "width": "2"
    }
  },
  {
    "type": "way",
    "id": 8699714,
    "center": {
      "lat": 38.4197347,
      "lon": -122.113279
    },
    "tags": {
      "highway": "track",
      "name": "Blue Ridge Road",
      "tiger:cfcc": "A41",
      "tiger:county": "Solano, CA;Napa, CA",
      "tiger:name_base": "Blue Ridge",
      "tiger:name_type": "Rd",
      "tiger:reviewed": "no"
    }
  },
  {
    "type": "way",
    "id": 8715869,
    "center": {
      "lat": 38.2328417,
      "lon": -122.1158091
    },
    "tags": {
      "bicycle": "designated",
      "foot": "designated",
      "highway": "path",
      "lcn": "yes",
      "name": "Linear Bike Trail",
      "segregated": "no",
      "tiger:cfcc": "A71",
      "tiger:county": "Solano, CA",
      "tiger:name_base": "Linear Park Pathway"
    }
  },
  {
    "type": "way",
    "id": 8725719,
    "center": {
      "lat": 38.220679,
      "lon": -122.180733
    },
    "tags": {
      "access": "private",
      "highway": "track",
      "name": "Miners Trail",
      "tiger:cfcc": "A74",
      "tiger:county": "Solano, CA",
      "tiger:name_base": "Miners",
      "tiger:name_type": "Trl",
      "tiger:reviewed": "no"
    }
  },
  {
    "type": "way",
    "id": 8917967,
    "center": {
      "lat": 37.7929193,
      "lon": -122.4552283
    },
    "tags": {
      "bicycle": "no",
      "highway": "footway",
      "name": "El Polin Loop",
      "surface": "compacted",
      "tiger:county": "San Francisco, CA",
      "tiger:name_base": "El Polin",
      "tiger:name_type": "Loop"
    }
  },
  {
    "type": "way",
    "id": 8919915,
    "center": {
      "lat": 37.3183136,
      "lon": -122.309978
    },
    "tags": {
      "access": "permit",
      "bicycle": "no",
      "foot": "permit",
      "highway": "track",
      "horse": "permit",
      "motor_vehicle": "private",
      "name": "Harrington Creek Trail",
      "tiger:cfcc": "A74",
      "tiger:county": "San Mateo, CA"
    }
  },
  {
    "type": "way",
    "id": 8920053,
    "center": {
      "lat": 37.1909408,
      "lon": -122.2843893
    },
    "tags": {
      "access": "private",
      "highway": "track",
      "name": "Cougar Ridge Road"
    }
  },
  {
    "type": "way",
    "id": 8920225,
    "center": {
      "lat": 37.2602538,
      "lon": -122.1817556
    },
    "tags": {
      "bicycle": "no",
      "foot": "yes",
      "highway": "path",
      "horse": "no",
      "motor_vehicle": "no",
      "name": "Slate Creek Trail",
      "tiger:cfcc": "A41",
      "tiger:county": "San Mateo, CA"
    }
  },
  {
    "type": "way",
    "id": 8920262,
    "center": {
      "lat": 37.2297554,
      "lon": -122.3610895
    },
    "tags": {
      "access": "private",
      "highway": "track",
      "name": "North Butano Truck Trail",
      "source": "digitalglobe",
      "tiger:cfcc": "A41",
      "tiger:county": "San Mateo, CA",
      "tiger:name_base": "North Butano Truck Trail",
      "tiger:reviewed": "no"
    }
  },
  {
    "type": "way",
    "id": 8920796,
    "center": {
      "lat": 37.3423287,
      "lon": -122.2791317
    },
    "tags": {
      "bicycle": "yes",
      "highway": "footway",
      "horse": "yes",
      "name": "Lonely Forest Trail",
      "surface": "dirt",
      "tiger:cfcc": "A74",
      "tiger:county": "San Mateo, CA",
      "tiger:reviewed": "no"
    }
  },
  {
    "type": "way",
    "id": 8921051,
    "center": {
      "lat": 37.625567,
      "lon": -122.4653419
    },
    "tags": {
      "bicycle": "no",
      "highway": "footway",
      "name": "Notch Trail",
      "tiger:cfcc": "A51",
      "tiger:county": "San Mateo, CA",
      "tiger:reviewed": "no"
    }
  },
  {
    "type": "way",
    "id": 8922628,
    "center": {
      "lat": 37.1945774,
      "lon": -122.2436146
    },
    "tags": {
      "bicycle": "yes",
      "foot": "yes",
      "highway": "track",
      "horse": "yes",
      "motor_vehicle": "private",
      "name": "Gazos Creek Road",
      "tiger:cfcc": "A41",
      "tiger:county": "San Mateo, CA"
    }
  },
  {
    "type": "way",
    "id": 8923063,
    "center": {
      "lat": 37.6995091,
      "lon": -122.4385836
    },
    "tags": {
      "bicycle": "yes",
      "highway": "path",
      "horse": "no",
      "name": "Old Guadalupe Trail",
      "surface": "asphalt",
      "tiger:cfcc": "A41",
      "tiger:county": "San Mateo, CA",
      "tiger:reviewed": "no",
      "width": "4"
    }
  },
  {
    "type": "way",
    "id": 8923516,
    "center": {
      "lat": 37.3054845,
      "lon": -121.5527995
    },
    "tags": {
      "highway": "track",
      "name": "Isabel Creek Trail",
      "tiger:cfcc": "A41:A51",
      "tiger:county": "Santa Clara, CA"
    }
  },
  {
    "type": "way",
    "id": 8924141,
    "center": {
      "lat": 37.455479,
      "lon": -122.2866088
    },
    "tags": {
      "bicycle": "no",
      "foot": "yes",
      "highway": "track",
      "horse": "yes",
      "lit": "no",
      "motorcar": "no",
      "name": "Crystal Springs Trail",
      "surface": "unpaved",
      "tiger:cfcc": "A41",
      "tiger:county": "San Mateo, CA",
      "tracktype": "grade2"
    }
  },
  {
    "type": "way",
    "id": 8924258,
    "center": {
      "lat": 37.3172086,
      "lon": -121.6646109
    },
    "tags": {
      "highway": "track",
      "name": "Manzanita Trail",
      "surface": "dirt",
      "tiger:cfcc": "A41",
      "tiger:county": "Santa Clara, CA",
      "tiger:reviewed": "yes",
      "tracktype": "grade2"
    }
  },
  {
    "type": "way",
    "id": 8924371,
    "center": {
      "lat": 37.1413,
      "lon": -122.3373103
    },
    "tags": {
      "highway": "footway",
      "name": "Cascade Creek Trail",
      "tiger:cfcc": "A41",
      "tiger:county": "San Mateo, CA",
      "tiger:reviewed": "no"
    }
  },
  {
    "type": "way",
    "id": 8925332,
    "center": {
      "lat": 37.1270397,
      "lon": -121.4211894
    },
    "tags": {
      "highway": "track",
      "incline": "down",
      "motor_vehicle": "no",
      "name": "Crest Trail",
      "surface": "ground",
      "tracktype": "grade3"
    }
  },
  {
    "type": "way",
    "id": 8925560,
    "center": {
      "lat": 37.2075885,
      "lon": -121.4310056
    },
    "tags": {
      "bicycle": "designated",
      "foot": "designated",
      "highway": "path",
      "horse": "designated",
      "name": "Bear Mountain Peak Trail",
      "segregated": "no",
      "surface": "ground"
    }
  },
  {
    "type": "way",
    "id": 8925629,
    "center": {
      "lat": 37.078379,
      "lon": -121.4397996
    },
    "tags": {
      "bicycle": "designated",
      "foot": "designated",
      "highway": "path",
      "horse": "designated",
      "name": "Lyman Willson Ridge Trail",
      "surface": "ground"
    }
  },
  {
    "type": "way",
    "id": 8925716,
    "center": {
      "lat": 37.3973173,
      "lon": -121.7977718
    },
    "tags": {
      "highway": "track",
      "name": "Mineral Springs Loop",
      "tiger:cfcc": "A41",
      "tiger:county": "Santa Clara, CA",
      "tiger:reviewed": "no"
    }
  },
  {
    "type": "way",
    "id": 8925742,
    "center": {
      "lat": 37.1629875,
      "lon": -121.5315659
    },
    "tags": {
      "highway": "track",
      "motor_vehicle": "no",
      "name": "Cordoza Ridge Road",
      "surface": "unpaved"
    }
  },
  {
    "type": "way",
    "id": 8925856,
    "center": {
      "lat": 37.214902,
      "lon": -121.6980939
    },
    "tags": {
      "bicycle": "yes",
      "foot": "yes",
      "highway": "path",
      "horse": "yes",
      "motor_vehicle": "no",
      "name": "Tule Elk Trail",
      "note": "Requires (free) Butterfly Pass. Closed Mon/Tues.",
      "surface": "unpaved",
      "tiger:cfcc": "A41",
      "tiger:county": "Santa Clara, CA",
      "tiger:reviewed": "no"
    }
  },
  {
    "type": "way",
    "id": 8926076,
    "center": {
      "lat": 37.0162385,
      "lon": -121.709098
    },
    "tags": {
      "alt_name": "Bay Area Ridge Trail",
      "description": "Mount Madonna County Park",
      "fixme": "Improve geometry using USGS 3DEP imagery - for this and most other trails around here",
      "highway": "track",
      "horse": "yes",
      "name": "Loop Trail",
      "tiger:cfcc": "A41",
      "tiger:county": "Santa Clara, CA",
      "tiger:reviewed": "yes"
    }
  },
  {
    "type": "way",
    "id": 8926086,
    "center": {
      "lat": 37.0111728,
      "lon": -121.7011277
    },
    "tags": {
      "highway": "track",
      "horse": "yes",
      "name": "Loop Trail",
      "tiger:cfcc": "A71",
      "tiger:county": "Santa Clara, CA",
      "tiger:reviewed": "yes"
    }
  },
  {
    "type": "way",
    "id": 8926105,
    "center": {
      "lat": 37.5061793,
      "lon": -122.319328
    },
    "tags": {
      "bicycle": "yes",
      "foot": "yes",
      "highway": "path",
      "motor_vehicle": "no",
      "name": "Upper Lake Road Trail",
      "source": "City of Belmont Open Space Trail Map",
      "surface": "dirt",
      "tiger:cfcc": "A41",
      "tiger:county": "San Mateo, CA",
      "tiger:name_base": "Lake",
      "tiger:name_type": "Rd",
      "tiger:reviewed": "no"
    }
  },
  {
    "type": "way",
    "id": 8926599,
    "center": {
      "lat": 37.2516742,
      "lon": -122.3103358
    },
    "tags": {
      "access": "private",
      "highway": "track",
      "name": "Butano Ridge",
      "tiger:cfcc": "A51",
      "tiger:county": "San Mateo, CA",
      "tiger:name_base": "Butanoridge",
      "tiger:reviewed": "no"
    }
  },
  {
    "type": "way",
    "id": 8926700,
    "center": {
      "lat": 37.2127124,
      "lon": -122.3303599
    },
    "tags": {
      "bicycle": "yes",
      "highway": "track",
      "motor_vehicle": "no",
      "name": "South Butano Fire Trail",
      "tiger:cfcc": "A41",
      "tiger:county": "San Mateo, CA",
      "tiger:name_base": "Butano Fire",
      "tiger:name_direction_prefix": "S",
      "tiger:name_type": "Trl"
    }
  },
  {
    "type": "way",
    "id": 8926785,
    "center": {
      "lat": 37.0137425,
      "lon": -121.6874116
    },
    "tags": {
      "alt_name": "Bay Area Ridge Trail",
      "description": "Mount Madonna County Park",
      "highway": "track",
      "horse": "yes",
      "name": "Merry-Go-Round Trail",
      "tiger:cfcc": "A41",
      "tiger:county": "Santa Clara, CA",
      "tiger:reviewed": "yes"
    }
  },
  {
    "type": "way",
    "id": 8926860,
    "center": {
      "lat": 37.1798009,
      "lon": -121.997434
    },
    "tags": {
      "bicycle": "no",
      "foot": "yes",
      "highway": "track",
      "horse": "yes",
      "motor_vehicle": "no",
      "name": "Radio Hill Trail",
      "source": "GPS and USGS Ortho",
      "surface": "gravel",
      "was:name": "Alma College Road",
      "width": "3"
    }
  },
  {
    "type": "way",
    "id": 8926868,
    "center": {
      "lat": 37.6896268,
      "lon": -122.4137729
    },
    "tags": {
      "abandoned:railway": "rail",
      "bicycle": "yes",
      "foot": "yes",
      "highway": "footway",
      "name": "Crocker Park Recreational Trail",
      "railway": "abandoned",
      "tiger:cfcc": "B21",
      "tiger:county": "San Mateo, CA",
      "tiger:name_base": "Union Pacific Railroad"
    }
  },
  {
    "type": "way",
    "id": 8926877,
    "center": {
      "lat": 37.6872315,
      "lon": -122.4053399
    },
    "tags": {
      "abandoned:railway": "rail",
      "bicycle": "yes",
      "highway": "footway",
      "name": "Crocker Park Recreational Trail",
      "railway": "abandoned",
      "tiger:cfcc": "B21",
      "tiger:county": "San Mateo, CA"
    }
  },
  {
    "type": "way",
    "id": 8927776,
    "center": {
      "lat": 37.3674619,
      "lon": -121.6005632
    },
    "tags": {
      "access": "private",
      "highway": "track",
      "name": "Isabel Creek Trail",
      "tiger:cfcc": "A41",
      "tiger:county": "Santa Clara, CA",
      "tiger:reviewed": "no"
    }
  },
  {
    "type": "way",
    "id": 8928258,
    "center": {
      "lat": 37.1903115,
      "lon": -122.2754458
    },
    "tags": {
      "bicycle": "yes",
      "foot": "yes",
      "highway": "track",
      "horse": "yes",
      "motor_vehicle": "no",
      "name": "Whitehouse Canyon Road",
      "tiger:cfcc": "A41",
      "tiger:county": "San Mateo, CA",
      "tiger:name_base": "White House",
      "tiger:name_type": "Rd",
      "tiger:reviewed": "no"
    }
  },
  {
    "type": "way",
    "id": 8928262,
    "center": {
      "lat": 37.1918602,
      "lon": -122.2710137
    },
    "tags": {
      "bicycle": "yes",
      "highway": "track",
      "horse": "yes",
      "motor_vehicle": "no",
      "name": "Whitehouse Canyon Road",
      "tiger:cfcc": "A41",
      "tiger:county": "San Mateo, CA",
      "tiger:name_base": "White House",
      "tiger:name_type": "Rd",
      "tiger:reviewed": "no",
      "tracktype": "grade2"
    }
  },
  {
    "type": "way",
    "id": 8928871,
    "center": {
      "lat": 37.3052193,
      "lon": -122.3661557
    },
    "tags": {
      "access": "private",
      "highway": "track",
      "name": "Pomponio Creek Road",
      "tiger:cfcc": "A41",
      "tiger:county": "San Mateo, CA",
      "tiger:name_base": "Pomponio Creek",
      "tiger:name_type": "Rd",
      "tiger:reviewed": "no"
    }
  },
  {
    "type": "way",
    "id": 8929314,
    "center": {
      "lat": 37.2926725,
      "lon": -122.196213
    },
    "tags": {
      "access": "private",
      "highway": "track",
      "name": "Old Page Mill Trail",
      "tiger:cfcc": "A41",
      "tiger:county": "San Mateo, CA",
      "tiger:name_base": "Old Page Mill Tr",
      "tiger:reviewed": "no"
    }
  },
  {
    "type": "way",
    "id": 8929318,
    "center": {
      "lat": 37.2837832,
      "lon": -122.1988012
    },
    "tags": {
      "access": "private",
      "highway": "track",
      "name": "Old Page Mill Trail",
      "tiger:cfcc": "A41",
      "tiger:county": "San Mateo, CA",
      "tiger:name_base": "Old Page Mill Tr",
      "tiger:reviewed": "no"
    }
  },
  {
    "type": "way",
    "id": 8929322,
    "center": {
      "lat": 37.2876935,
      "lon": -122.197765
    },
    "tags": {
      "access": "private",
      "highway": "track",
      "name": "Old Page Mill Trail",
      "tiger:cfcc": "A41",
      "tiger:county": "San Mateo, CA",
      "tiger:name_base": "Old Page Mill Tr",
      "tiger:reviewed": "no"
    }
  },
  {
    "type": "way",
    "id": 8929334,
    "center": {
      "lat": 37.3043629,
      "lon": -122.1891897
    },
    "tags": {
      "access": "no",
      "highway": "path",
      "name": "Old Page Mill Trail",
      "tracktype": "grade5"
    }
  },
  {
    "type": "way",
    "id": 8929350,
    "center": {
      "lat": 37.288772,
      "lon": -122.1958772
    },
    "tags": {
      "access": "no",
      "highway": "track",
      "name": "Old Page Mill Trail",
      "tiger:cfcc": "A41",
      "tiger:county": "San Mateo, CA",
      "tiger:name_base": "Old Page Mill Tr",
      "tiger:reviewed": "no"
    }
  },
  {
    "type": "way",
    "id": 8929352,
    "center": {
      "lat": 37.2765414,
      "lon": -122.2000393
    },
    "tags": {
      "bicycle": "no",
      "foot": "yes",
      "highway": "track",
      "horse": "no",
      "motor_vehicle": "no",
      "name": "Old Page Mill Trail",
      "tiger:cfcc": "A41",
      "tiger:county": "San Mateo, CA",
      "tiger:name_base": "Old Page Mill Tr",
      "tiger:reviewed": "no",
      "trail": "hiking"
    }
  },
  {
    "type": "way",
    "id": 8929729,
    "center": {
      "lat": 37.2756356,
      "lon": -122.2479823
    },
    "tags": {
      "bicycle": "no",
      "foot": "yes",
      "highway": "track",
      "horse": "yes",
      "name": "Bravo Fire Road",
      "tiger:cfcc": "A41",
      "tiger:county": "San Mateo, CA",
      "tiger:name_base": "Bravo Fire Road",
      "tiger:reviewed": "no"
    }
  },
  {
    "type": "way",
    "id": 8929950,
    "center": {
      "lat": 37.2963697,
      "lon": -122.2692031
    },
    "tags": {
      "bicycle": "no",
      "foot": "yes",
      "highway": "track",
      "horse": "yes",
      "name": "Ridge Fire Road",
      "tiger:cfcc": "A51",
      "tiger:county": "San Mateo, CA",
      "tiger:name_base": "Ridge Fire Road;Towne Fire Road",
      "tiger:reviewed": "no"
    }
  },
  {
    "type": "way",
    "id": 8930181,
    "center": {
      "lat": 37.2246313,
      "lon": -122.2272563
    },
    "tags": {
      "bicycle": "no",
      "highway": "path",
      "motor_vehicle": "no",
      "name": "North Butano Truck Trail",
      "tiger:cfcc": "A41",
      "tiger:county": "San Mateo, CA",
      "tiger:name_base": "Butano Truck Trail",
      "tiger:name_direction_prefix": "N",
      "tiger:reviewed": "no",
      "tracktype": "grade3"
    }
  },
  {
    "type": "way",
    "id": 8931820,
    "center": {
      "lat": 37.2712116,
      "lon": -122.1811648
    },
    "tags": {
      "access": "no",
      "highway": "track",
      "name": "Doherty Ridge Road",
      "surface": "gravel",
      "tiger:cfcc": "A41",
      "tiger:county": "San Mateo, CA",
      "tiger:name_base": "Doherty Ridge",
      "tiger:name_type": "Rd",
      "tiger:reviewed": "no"
    }
  },
  {
    "type": "way",
    "id": 8932691,
    "center": {
      "lat": 37.2807441,
      "lon": -122.30024
    },
    "tags": {
      "bicycle": "no",
      "foot": "yes",
      "highway": "footway",
      "horse": "no",
      "name": "Pomponio Canyon Trail",
      "tiger:cfcc": "A51",
      "tiger:county": "San Mateo, CA",
      "tiger:name_base": "Pomponio Truck Trail",
      "tiger:reviewed": "no"
    }
  },
  {
    "type": "way",
    "id": 8932718,
    "center": {
      "lat": 37.2814044,
      "lon": -122.3236717
    },
    "tags": {
      "access": "private",
      "highway": "track",
      "name": "Pomponio Truck Trail",
      "tiger:cfcc": "A41",
      "tiger:county": "San Mateo, CA",
      "tiger:name_base": "Pomponio Truck Trail",
      "tiger:reviewed": "no"
    }
  },
  {
    "type": "way",
    "id": 8932729,
    "center": {
      "lat": 37.2733118,
      "lon": -122.330605
    },
    "tags": {
      "access": "private",
      "highway": "track",
      "name": "Pomponio Truck Trail",
      "tiger:cfcc": "A51",
      "tiger:county": "San Mateo, CA",
      "tiger:name_base": "Pomponio Truck Trail",
      "tiger:reviewed": "no"
    }
  },
  {
    "type": "way",
    "id": 8933089,
    "center": {
      "lat": 37.2875269,
      "lon": -122.2568648
    },
    "tags": {
      "bicycle": "no",
      "foot": "yes",
      "highway": "track",
      "horse": "yes",
      "name": "Towne Fire Road",
      "tiger:cfcc": "A51",
      "tiger:county": "San Mateo, CA",
      "tiger:name_base": "Towne;Towne Fire Road",
      "tiger:name_type": "Rd",
      "tiger:reviewed": "no"
    }
  },
  {
    "type": "way",
    "id": 8933209,
    "center": {
      "lat": 37.1985996,
      "lon": -122.2806229
    },
    "tags": {
      "access": "yes",
      "highway": "track",
      "motor_vehicle": "private",
      "name": "Gazos Creek Road",
      "surface": "dirt",
      "tiger:cfcc": "A51",
      "tiger:county": "San Mateo, CA",
      "tiger:name_base": "Fork Gazos Creek",
      "tiger:name_direction_prefix": "S",
      "tiger:name_type": "Rd",
      "tiger:reviewed": "no",
      "tracktype": "grade2"
    }
  },
  {
    "type": "way",
    "id": 8933612,
    "center": {
      "lat": 37.5736209,
      "lon": -122.5063296
    },
    "tags": {
      "highway": "path",
      "name": "San Pedro Mountain Trail",
      "oneway:bicycle": "yes",
      "surface": "dirt"
    }
  },
  {
    "type": "way",
    "id": 8933768,
    "center": {
      "lat": 37.2598901,
      "lon": -122.1951677
    },
    "tags": {
      "access": "no",
      "bicycle": "no",
      "highway": "track",
      "name": "Slate Creek Road"
    }
  },
  {
    "type": "way",
    "id": 8933772,
    "center": {
      "lat": 37.26575,
      "lon": -122.209243
    },
    "tags": {
      "access": "private",
      "bicycle": "no",
      "highway": "track",
      "name": "Slate Creek Road",
      "tiger:cfcc": "A41",
      "tiger:county": "San Mateo, CA",
      "tiger:name_base": "Slate Creek",
      "tiger:name_type": "Rd",
      "tiger:reviewed": "no"
    }
  },
  {
    "type": "way",
    "id": 8933861,
    "center": {
      "lat": 37.273509,
      "lon": -122.1753143
    },
    "tags": {
      "access": "no",
      "highway": "track",
      "name": "Five Points Road",
      "tiger:cfcc": "A41",
      "tiger:county": "San Mateo, CA",
      "tiger:name_base": "Five Points",
      "tiger:name_type": "Rd",
      "tiger:reviewed": "no"
    }
  },
  {
    "type": "way",
    "id": 8933865,
    "center": {
      "lat": 37.2741098,
      "lon": -122.1706078
    },
    "tags": {
      "access": "no",
      "highway": "track",
      "name": "Five Points Road",
      "tiger:cfcc": "A41",
      "tiger:county": "San Mateo, CA",
      "tiger:name_base": "Five Points",
      "tiger:name_type": "Rd",
      "tiger:reviewed": "no"
    }
  },
  {
    "type": "way",
    "id": 8933867,
    "center": {
      "lat": 37.2727508,
      "lon": -122.1695834
    },
    "tags": {
      "access": "no",
      "highway": "track",
      "name": "Five Points Road",
      "tiger:cfcc": "A41",
      "tiger:county": "San Mateo, CA",
      "tiger:name_base": "Five Points",
      "tiger:name_type": "Rd",
      "tiger:reviewed": "no"
    }
  },
  {
    "type": "way",
    "id": 8934728,
    "center": {
      "lat": 37.2802183,
      "lon": -121.6923338
    },
    "tags": {
      "highway": "track",
      "name": "San Felipe Trail",
      "tiger:cfcc": "A41",
      "tiger:county": "Santa Clara, CA",
      "tiger:name_base": "Metcalf; San Felipe:Mount Hamilton; Metcalf; San Felipe",
      "tiger:reviewed": "no"
    }
  },
  {
    "type": "way",
    "id": 8936155,
    "center": {
      "lat": 37.2643122,
      "lon": -122.2035736
    },
    "tags": {
      "access": "private",
      "bicycle": "no",
      "highway": "track",
      "name": "Slate Creek Road",
      "tiger:cfcc": "A41",
      "tiger:county": "San Mateo, CA",
      "tiger:name_base": "Portola State Park;Slate Creek",
      "tiger:name_type": "Rd",
      "tiger:reviewed": "no"
    }
  },
  {
    "type": "way",
    "id": 8936302,
    "center": {
      "lat": 37.1139948,
      "lon": -121.7792264
    },
    "tags": {
      "highway": "track",
      "name": "Canyon Oak Lane",
      "tiger:cfcc": "A41",
      "tiger:county": "Santa Clara, CA",
      "tiger:name_base": "Canyon Oak",
      "tiger:name_type": "Ln"
    }
  },
  {
    "type": "way",
    "id": 8936323,
    "center": {
      "lat": 37.1819082,
      "lon": -122.3282456
    },
    "tags": {
      "highway": "track",
      "motor_vehicle": "permit",
      "name": "Old Womans Creek Road",
      "tiger:cfcc": "A41",
      "tiger:county": "San Mateo, CA",
      "tiger:name_base": "Cloverdale",
      "tiger:name_type": "Rd"
    }
  },
  {
    "type": "way",
    "id": 8936923,
    "center": {
      "lat": 37.28819,
      "lon": -122.2361652
    },
    "tags": {
      "access": "private",
      "highway": "track",
      "name": "Towne Fire Trail",
      "tiger:cfcc": "A41",
      "tiger:county": "San Mateo, CA",
      "tiger:name_base": "Towne Fire Trail",
      "tiger:reviewed": "no"
    }
  },
  {
    "type": "way",
    "id": 8937080,
    "center": {
      "lat": 37.2384975,
      "lon": -122.2803981
    },
    "tags": {
      "access": "no",
      "highway": "track",
      "name": "South Butano Truck Trail",
      "tiger:cfcc": "A41",
      "tiger:county": "San Mateo, CA",
      "tiger:name_base": "Butano Truck Trail",
      "tiger:name_direction_prefix": "S",
      "tiger:reviewed": "no"
    }
  },
  {
    "type": "way",
    "id": 8937409,
    "center": {
      "lat": 37.2644636,
      "lon": -122.2993825
    },
    "tags": {
      "access": "private",
      "highway": "track",
      "name": "Jeep Trail",
      "tiger:cfcc": "A74",
      "tiger:county": "San Mateo, CA",
      "tiger:name_base": "Jeep",
      "tiger:name_type": "Trl",
      "tiger:reviewed": "no",
      "tiger:source": "tiger_import_dch_v0.6_20070809",
      "tiger:tlid": "192408689:192386909:192408690"
    }
  },
  {
    "type": "way",
    "id": 8937423,
    "center": {
      "lat": 37.2675151,
      "lon": -122.1942067
    },
    "tags": {
      "bicycle": "no",
      "foot": "yes",
      "highway": "path",
      "horse": "no",
      "motor_vehicle": "no",
      "name": "Bear Creek Trail",
      "tiger:cfcc": "A51",
      "tiger:county": "San Mateo, CA",
      "tiger:name_base": "Bear Creek",
      "tiger:name_type": "Trl",
      "tiger:reviewed": "yes"
    }
  },
  {
    "type": "way",
    "id": 8937452,
    "center": {
      "lat": 37.3107917,
      "lon": -122.2357052
    },
    "tags": {
      "access": "private",
      "highway": "track",
      "name": "Jeep Trail",
      "surface": "dirt",
      "tiger:cfcc": "A51",
      "tiger:county": "San Mateo, CA",
      "tiger:name_base": "Jeep",
      "tiger:name_type": "Trl",
      "tiger:reviewed": "no"
    }
  },
  {
    "type": "way",
    "id": 8937679,
    "center": {
      "lat": 37.2843156,
      "lon": -122.1838724
    },
    "tags": {
      "access": "private",
      "highway": "track",
      "name": "Long Ridge Road",
      "tiger:cfcc": "A41",
      "tiger:county": "San Mateo, CA",
      "tiger:name_base": "Long Ridge",
      "tiger:name_type": "Rd",
      "tiger:reviewed": "no"
    }
  },
  {
    "type": "way",
    "id": 8937684,
    "center": {
      "lat": 37.2837254,
      "lon": -122.1733294
    },
    "tags": {
      "access": "no",
      "fixme": "unknown if still exists, needs survey",
      "highway": "track",
      "name": "Long Ridge Road",
      "tiger:cfcc": "A41",
      "tiger:county": "San Mateo, CA",
      "tiger:name_base": "Long Ridge",
      "tiger:name_type": "Rd",
      "tiger:reviewed": "no"
    }
  },
  {
    "type": "way",
    "id": 8937688,
    "center": {
      "lat": 37.2846029,
      "lon": -122.1759621
    },
    "tags": {
      "access": "no",
      "fixme": "unknown if still exists, needs survey",
      "highway": "track",
      "name": "Long Ridge Road",
      "tiger:cfcc": "A41",
      "tiger:county": "San Mateo, CA",
      "tiger:name_base": "Long Ridge",
      "tiger:name_type": "Rd",
      "tiger:reviewed": "no"
    }
  },
  {
    "type": "way",
    "id": 8937696,
    "center": {
      "lat": 37.2805352,
      "lon": -122.1665747
    },
    "tags": {
      "access": "private",
      "highway": "track",
      "name": "Long Ridge Road",
      "tiger:cfcc": "A41",
      "tiger:county": "San Mateo, CA",
      "tiger:name_base": "Long Ridge",
      "tiger:name_type": "Rd",
      "tiger:reviewed": "no"
    }
  },
  {
    "type": "way",
    "id": 8937700,
    "center": {
      "lat": 37.2832689,
      "lon": -122.1794694
    },
    "tags": {
      "access": "no",
      "highway": "track",
      "name": "Long Ridge Road",
      "tiger:cfcc": "A41",
      "tiger:county": "San Mateo, CA",
      "tiger:name_base": "Long Ridge",
      "tiger:name_type": "Rd",
      "tiger:reviewed": "no"
    }
  },
  {
    "type": "way",
    "id": 8937711,
    "center": {
      "lat": 37.285499,
      "lon": -122.190269
    },
    "tags": {
      "access": "private",
      "highway": "track",
      "name": "Long Ridge Road",
      "tiger:cfcc": "A41",
      "tiger:county": "San Mateo, CA",
      "tiger:name_base": "Long Ridge",
      "tiger:name_type": "Rd",
      "tiger:reviewed": "no"
    }
  },
  {
    "type": "way",
    "id": 8938832,
    "center": {
      "lat": 37.2737817,
      "lon": -122.2573007
    },
    "tags": {
      "bicycle": "no",
      "foot": "yes",
      "highway": "track",
      "horse": "yes",
      "name": "Towne Fire Road",
      "tiger:cfcc": "A51",
      "tiger:county": "San Mateo, CA",
      "tiger:name_base": "Towne Fire Road"
    }
  },
  {
    "type": "way",
    "id": 8939566,
    "center": {
      "lat": 37.4006404,
      "lon": -121.7698535
    },
    "tags": {
      "access": "private",
      "highway": "track",
      "name": "Alum Rock Falls Road",
      "tiger:cfcc": "A41",
      "tiger:county": "Santa Clara, CA",
      "tiger:name_base": "Alum Rock Falls",
      "tiger:name_type": "Rd",
      "tiger:reviewed": "no"
    }
  },
  {
    "type": "way",
    "id": 8939568,
    "center": {
      "lat": 37.3885795,
      "lon": -121.7522753
    },
    "tags": {
      "access": "private",
      "highway": "track",
      "name": "Alum Rock Falls Road",
      "tiger:cfcc": "A41",
      "tiger:county": "Santa Clara, CA",
      "tiger:name_base": "Alum Rock Falls",
      "tiger:name_type": "Rd",
      "tiger:reviewed": "no"
    }
  },
  {
    "type": "way",
    "id": 8939613,
    "center": {
      "lat": 37.3042514,
      "lon": -122.2871006
    },
    "tags": {
      "access": "private",
      "highway": "track",
      "name": "Burns Chalk Fire Road",
      "tiger:cfcc": "A51",
      "tiger:county": "San Mateo, CA",
      "tiger:name_base": "Burns Chalk Fire Road",
      "tiger:reviewed": "no"
    }
  },
  {
    "type": "way",
    "id": 8939618,
    "center": {
      "lat": 37.2986748,
      "lon": -122.2961169
    },
    "tags": {
      "access": "private",
      "highway": "track",
      "name": "Burns Chalk Fire Road",
      "tiger:cfcc": "A51",
      "tiger:county": "San Mateo, CA",
      "tiger:name_base": "Burns Chalk Fire Road",
      "tiger:reviewed": "no"
    }
  },
  {
    "type": "way",
    "id": 8939622,
    "center": {
      "lat": 37.3025979,
      "lon": -122.2919777
    },
    "tags": {
      "access": "private",
      "highway": "track",
      "name": "Burns Chalk Fire Road",
      "tiger:cfcc": "A51",
      "tiger:county": "San Mateo, CA",
      "tiger:name_base": "Burns Chalk Fire Road",
      "tiger:reviewed": "no"
    }
  },
  {
    "type": "way",
    "id": 8939687,
    "center": {
      "lat": 37.3388731,
      "lon": -122.3577618
    },
    "tags": {
      "access": "private",
      "highway": "track",
      "name": "Coyote Creek Road",
      "surface": "unpaved",
      "tiger:cfcc": "A74",
      "tiger:county": "San Mateo, CA",
      "tiger:name_base": "Coyote Creek",
      "tiger:name_type": "Rd",
      "tiger:reviewed": "no"
    }
  },
  {
    "type": "way",
    "id": 8940232,
    "center": {
      "lat": 37.3778491,
      "lon": -122.2543572
    },
    "tags": {
      "access": "yes",
      "bicycle": "yes",
      "highway": "track",
      "motor_vehicle": "no",
      "name": "Summit Road",
      "surface": "dirt",
      "tiger:cfcc": "A41",
      "tiger:county": "San Mateo, CA",
      "tiger:name_base": "Summit",
      "tiger:name_type": "Rd",
      "tiger:reviewed": "no"
    }
  },
  {
    "type": "way",
    "id": 8940258,
    "center": {
      "lat": 37.3382602,
      "lon": -122.0905005
    },
    "tags": {
      "bicycle": "designated",
      "dog": "no",
      "foot": "designated",
      "highway": "path",
      "horse": "no",
      "informal": "no",
      "motor_vehicle": "no",
      "mrosd:preserve": "Rancho San Antonio",
      "name": "Deer Meadow Trail",
      "operator": "MROSD",
      "surface": "asphalt",
      "tiger:cfcc": "A41",
      "tiger:county": "Santa Clara, CA",
      "tiger:name_base": "Mora",
      "tiger:name_type": "Dr"
    }
  },
  {
    "type": "way",
    "id": 8941097,
    "center": {
      "lat": 37.2876773,
      "lon": -121.5651333
    },
    "tags": {
      "access": "private",
      "highway": "track",
      "name": "Mule Trail",
      "tiger:cfcc": "A41:A41;A51:A51",
      "tiger:county": "Santa Clara, CA",
      "tiger:reviewed": "no"
    }
  },
  {
    "type": "way",
    "id": 8941103,
    "center": {
      "lat": 37.1956055,
      "lon": -122.269817
    },
    "tags": {
      "access": "yes",
      "highway": "track",
      "motor_vehicle": "private",
      "name": "Gazos Creek Road",
      "tiger:cfcc": "A41",
      "tiger:county": "San Mateo, CA",
      "tiger:name_base": "Gazos Creek",
      "tiger:name_type": "Rd",
      "tiger:reviewed": "no",
      "tracktype": "grade2"
    }
  },
  {
    "type": "way",
    "id": 8941146,
    "center": {
      "lat": 37.1948962,
      "lon": -122.2477286
    },
    "tags": {
      "bicycle": "yes",
      "foot": "yes",
      "highway": "track",
      "horse": "yes",
      "motor_vehicle": "no",
      "name": "Gazos Creek Road",
      "tiger:cfcc": "A41",
      "tiger:county": "San Mateo, CA",
      "tiger:name_base": "Gazos Creek",
      "tiger:name_type": "Rd",
      "tiger:reviewed": "no"
    }
  },
  {
    "type": "way",
    "id": 8941153,
    "center": {
      "lat": 37.1913393,
      "lon": -122.2553072
    },
    "tags": {
      "bicycle": "yes",
      "foot": "yes",
      "highway": "track",
      "horse": "yes",
      "motor_vehicle": "no",
      "name": "Gazos Creek Road",
      "tiger:cfcc": "A41",
      "tiger:county": "San Mateo, CA",
      "tiger:name_base": "Gazos Creek",
      "tiger:name_type": "Rd",
      "tiger:reviewed": "no"
    }
  },
  {
    "type": "way",
    "id": 8941157,
    "center": {
      "lat": 37.189881,
      "lon": -122.2455949
    },
    "tags": {
      "bicycle": "yes",
      "foot": "yes",
      "highway": "track",
      "horse": "yes",
      "motor_vehicle": "no",
      "name": "Gazos Creek Road",
      "tiger:cfcc": "A41",
      "tiger:county": "San Mateo, CA",
      "tiger:name_base": "Gazos Creek",
      "tiger:name_type": "Rd"
    }
  },
  {
    "type": "way",
    "id": 8948809,
    "center": {
      "lat": 37.4751828,
      "lon": -121.8659421
    },
    "tags": {
      "highway": "track",
      "motor_vehicle": "private",
      "name": "Monument Peak Road",
      "surface": "dirt",
      "tiger:cfcc": "A41",
      "tiger:county": "Santa Clara, CA",
      "tiger:name_base": "Downing",
      "tiger:name_type": "Rd",
      "tiger:reviewed": "no",
      "tracktype": "grade3"
    }
  },
  {
    "type": "way",
    "id": 8959776,
    "center": {
      "lat": 37.4340787,
      "lon": -121.9027946
    },
    "tags": {
      "highway": "footway",
      "name": "Sagemeadow Court",
      "tiger:cfcc": "A41",
      "tiger:county": "Santa Clara, CA",
      "tiger:name_base": "Sagemeadow",
      "tiger:name_type": "Ct"
    }
  },
  {
    "type": "way",
    "id": 8964682,
    "center": {
      "lat": 37.393703,
      "lon": -122.1828022
    },
    "tags": {
      "access": "private",
      "highway": "track",
      "name": "Jeep Trail",
      "tiger:cfcc": "A41",
      "tiger:county": "Santa Clara, CA",
      "tiger:name_base": "Jeep",
      "tiger:name_type": "Trl"
    }
  },
  {
    "type": "way",
    "id": 8964689,
    "center": {
      "lat": 37.3977057,
      "lon": -122.1887305
    },
    "tags": {
      "access": "private",
      "highway": "track",
      "name": "Jeep Trail",
      "tiger:cfcc": "A41",
      "tiger:county": "Santa Clara, CA",
      "tiger:name_base": "Jeep",
      "tiger:name_type": "Trl"
    }
  },
  {
    "type": "way",
    "id": 8966676,
    "center": {
      "lat": 37.0070784,
      "lon": -121.6936333
    },
    "tags": {
      "highway": "track",
      "horse": "yes",
      "name": "Ridge Trail",
      "tiger:cfcc": "A71",
      "tiger:county": "Santa Clara, CA",
      "tiger:name_base": "Ridge",
      "tiger:name_type": "Rd",
      "tiger:reviewed": "yes"
    }
  },
  {
    "type": "way",
    "id": 8967678,
    "center": {
      "lat": 37.2029136,
      "lon": -121.9630173
    },
    "tags": {
      "access": "private",
      "highway": "track",
      "name": "Limekiln Canyon Road",
      "tiger:cfcc": "A41",
      "tiger:county": "Santa Clara, CA",
      "tiger:name_base": "Limekiln Cyn",
      "tiger:name_type": "Rd",
      "tiger:reviewed": "no"
    }
  },
  {
    "type": "way",
    "id": 10246264,
    "center": {
      "lat": 37.919118,
      "lon": -122.2623068
    },
    "tags": {
      "bicycle": "no",
      "highway": "path",
      "horse": "no",
      "motor_vehicle": "no",
      "motorcar": "no",
      "motorcycle": "no",
      "name": "Wildcat Peak Trail"
    }
  },
  {
    "type": "way",
    "id": 10246267,
    "center": {
      "lat": 37.9169883,
      "lon": -122.2629257
    },
    "tags": {
      "bicycle": "no",
      "fixme": "Improve accuracy with USGS 3DEP imagery layer and Strava Global Heatmap",
      "foot": "yes",
      "highway": "path",
      "horse": "no",
      "motor_vehicle": "no",
      "motorcar": "no",
      "motorcycle": "no",
      "name": "Wildcat Peak Trail",
      "surface": "ground"
    }
  },
  {
    "type": "way",
    "id": 10246278,
    "center": {
      "lat": 37.9189379,
      "lon": -122.2576348
    },
    "tags": {
      "bicycle": "no",
      "highway": "path",
      "horse": "no",
      "motor_vehicle": "no",
      "name": "Wildcat Peak Trail"
    }
  },
  {
    "type": "way",
    "id": 10246283,
    "center": {
      "lat": 37.9158377,
      "lon": -122.2577718
    },
    "tags": {
      "bicycle": "no",
      "highway": "path",
      "horse": "yes",
      "motor_vehicle": "no",
      "motorcar": "no",
      "motorcycle": "no",
      "name": "Laurel Canyon Road"
    }
  },
  {
    "type": "way",
    "id": 10246285,
    "center": {
      "lat": 37.9152479,
      "lon": -122.2579974
    },
    "tags": {
      "bicycle": "no",
      "highway": "path",
      "horse": "no",
      "name": "Laurel Canyon Trail",
      "surface": "ground"
    }
  },
  {
    "type": "way",
    "id": 10246287,
    "center": {
      "lat": 37.9134892,
      "lon": -122.2653054
    },
    "tags": {
      "bicycle": "no",
      "highway": "path",
      "horse": "no",
      "name": "Sylvan Trail"
    }
  },
  {
    "type": "way",
    "id": 10246290,
    "center": {
      "lat": 37.911283,
      "lon": -122.2677113
    },
    "tags": {
      "bicycle": "no",
      "bridge": "boardwalk",
      "foot": "yes",
      "highway": "path",
      "layer": "1",
      "name": "Jewel Lake Trail",
      "sac_scale": "hiking",
      "surface": "wood"
    }
  },
  {
    "type": "way",
    "id": 10246293,
    "center": {
      "lat": 37.9122555,
      "lon": -122.2684473
    },
    "tags": {
      "bicycle": "no",
      "foot": "yes",
      "highway": "path",
      "name": "Jewel Lake Trail"
    }
  },
  {
    "type": "way",
    "id": 10246295,
    "center": {
      "lat": 37.9103638,
      "lon": -122.2678939
    },
    "tags": {
      "bicycle": "no",
      "fixme": "survey with gps",
      "highway": "path",
      "horse": "no",
      "name": "Upper Packrat Trail",
      "surface": "ground"
    }
  },
  {
    "type": "way",
    "id": 10246298,
    "center": {
      "lat": 37.9142344,
      "lon": -122.267958
    },
    "tags": {
      "bicycle": "no",
      "highway": "path",
      "horse": "no",
      "name": "Sylvan Trail"
    }
  },
  {
    "type": "way",
    "id": 10246299,
    "center": {
      "lat": 37.9102417,
      "lon": -122.2648251
    },
    "tags": {
      "bicycle": "no",
      "highway": "path",
      "horse": "no",
      "name": "Jewel Lake Trail",
      "surface": "ground"
    }
  },
  {
    "type": "way",
    "id": 10246306,
    "center": {
      "lat": 37.9095397,
      "lon": -122.2657698
    },
    "tags": {
      "bicycle": "no",
      "highway": "track",
      "motor_vehicle": "no",
      "motorcar": "no",
      "motorcycle": "no",
      "name": "Wildcat Creek Trail",
      "tiger:cfcc": "A41",
      "tiger:county": "Contra Costa, CA",
      "tiger:name_base": "Fire Trail 4",
      "tiger:reviewed": "no",
      "tracktype": "grade1"
    }
  },
  {
    "type": "way",
    "id": 10246307,
    "center": {
      "lat": 37.9110656,
      "lon": -122.2672355
    },
    "tags": {
      "bicycle": "no",
      "highway": "path",
      "motor_vehicle": "no",
      "motorcar": "no",
      "motorcycle": "no",
      "name": "Wildcat Creek Trail",
      "tiger:cfcc": "A41",
      "tiger:county": "Contra Costa, CA",
      "tiger:name_base": "Fire Trail 4",
      "tiger:reviewed": "no",
      "tracktype": "grade2"
    }
  },
  {
    "type": "way",
    "id": 10247091,
    "center": {
      "lat": 37.8978798,
      "lon": -122.2470572
    },
    "tags": {
      "bicycle": "yes",
      "foot": "yes",
      "highway": "track",
      "horse": "yes",
      "motor_vehicle": "no",
      "motorcar": "no",
      "motorcycle": "no",
      "name": "Mineral Springs Trail"
    }
  },
  {
    "type": "way",
    "id": 10502087,
    "center": {
      "lat": 38.4438739,
      "lon": -121.4091727
    },
    "tags": {
      "bicycle": "designated",
      "foot": "designated",
      "highway": "path",
      "motor_vehicle": "no",
      "name": "Jacinto Creek Trail",
      "oneway": "no",
      "segregated": "no",
      "surface": "asphalt"
    }
  },
  {
    "type": "way",
    "id": 10521260,
    "center": {
      "lat": 38.1565298,
      "lon": -121.5893115
    },
    "tags": {
      "embankment": "dyke",
      "highway": "track",
      "name": "Oxbow Marina Trail",
      "tiger:cfcc": "A41"
    }
  },
  {
    "type": "way",
    "id": 10548021,
    "center": {
      "lat": 37.2048807,
      "lon": -122.1541593
    },
    "tags": {
      "bicycle": "no",
      "highway": "track",
      "horse": "no",
      "motor_vehicle": "designated",
      "name": "Skyline To The Sea - Toll Road Interconnector Trail",
      "tiger:cfcc": "A41",
      "tiger:county": "Santa Cruz, CA",
      "tiger:reviewed": "no"
    }
  },
  {
    "type": "way",
    "id": 10548328,
    "center": {
      "lat": 37.0921718,
      "lon": -122.2244628
    },
    "tags": {
      "access": "private",
      "highway": "track",
      "name": "Penstock Truck Trail",
      "tiger:cfcc": "A74",
      "tiger:county": "Santa Cruz, CA"
    }
  },
  {
    "type": "way",
    "id": 10548637,
    "center": {
      "lat": 37.1450854,
      "lon": -122.1974354
    },
    "tags": {
      "highway": "track",
      "name": "Eagle Rock Trail",
      "tiger:cfcc": "A41",
      "tiger:county": "Santa Cruz, CA"
    }
  },
  {
    "type": "way",
    "id": 10548743,
    "center": {
      "lat": 37.1264701,
      "lon": -122.0551825
    },
    "tags": {
      "highway": "track",
      "name": "Loch Loop Trail",
      "tiger:cfcc": "A51",
      "tiger:county": "Santa Cruz, CA",
      "tracktype": "grade4"
    }
  },
  {
    "type": "way",
    "id": 10549158,
    "center": {
      "lat": 37.1032893,
      "lon": -122.2728054
    },
    "tags": {
      "access": "private",
      "highway": "track",
      "name": "Canyon Road"
    }
  },
  {
    "type": "way",
    "id": 10549516,
    "center": {
      "lat": 37.1480615,
      "lon": -122.2031525
    },
    "tags": {
      "foot": "yes",
      "highway": "track",
      "name": "North Fire Road",
      "tiger:cfcc": "A41",
      "tiger:county": "Santa Cruz, CA"
    }
  },
  {
    "type": "way",
    "id": 10549633,
    "center": {
      "lat": 37.2194779,
      "lon": -122.0952322
    },
    "tags": {
      "access": "permissive",
      "highway": "track",
      "name": "Kings Creek Truck Trail",
      "tiger:cfcc": "A41",
      "tiger:county": "Santa Cruz, CA",
      "tiger:name_base": "Bielawski",
      "tiger:name_type": "Rd"
    }
  },
  {
    "type": "way",
    "id": 10550144,
    "center": {
      "lat": 37.1284438,
      "lon": -122.0103528
    },
    "tags": {
      "highway": "path",
      "name": "Bell-Debbie Connector Trail"
    }
  },
  {
    "type": "way",
    "id": 10552618,
    "center": {
      "lat": 37.184396,
      "lon": -122.1126269
    },
    "tags": {
      "highway": "track",
      "name": "Logan Creek Road",
      "tiger:cfcc": "A51",
      "tiger:county": "Santa Cruz, CA",
      "tiger:name_base": "Logan Creek",
      "tiger:name_type": "Rd",
      "tiger:reviewed": "no"
    }
  },
  {
    "type": "way",
    "id": 10553998,
    "center": {
      "lat": 37.0538224,
      "lon": -122.1915184
    },
    "tags": {
      "alt_name": "Farri Road",
      "highway": "track",
      "name": "Molino Creek Farm Road",
      "tiger:cfcc": "A41",
      "tiger:county": "Santa Cruz, CA",
      "tiger:name_base": "Molino Creek",
      "tiger:name_base_1": "Farri",
      "tiger:name_type_1": "Rd",
      "tracktype": "grade1"
    }
  },
  {
    "type": "way",
    "id": 10554433,
    "center": {
      "lat": 37.1852824,
      "lon": -122.2798876
    },
    "tags": {
      "bicycle": "yes",
      "foot": "yes",
      "highway": "track",
      "horse": "yes",
      "motor_vehicle": "no",
      "name": "Whitehouse Canyon Road",
      "tiger:cfcc": "A41",
      "tiger:county": "Santa Cruz, CA",
      "tiger:name_base": "Canyon",
      "tiger:name_base_1": "Whitehouse",
      "tiger:name_type": "Rd",
      "tiger:name_type_1": "Rd"
    }
  },
  {
    "type": "way",
    "id": 10554945,
    "center": {
      "lat": 37.1840174,
      "lon": -122.0969961
    },
    "tags": {
      "access": "private",
      "highway": "track",
      "name": "Ridge Road",
      "tiger:cfcc": "A41",
      "tiger:county": "Santa Cruz, CA",
      "tiger:name_base": "Ridge",
      "tiger:name_type": "Rd",
      "tiger:reviewed": "no"
    }
  },
  {
    "type": "way",
    "id": 10554985,
    "center": {
      "lat": 37.1116428,
      "lon": -122.2716238
    },
    "tags": {
      "bicycle": "yes",
      "highway": "path",
      "horse": "yes",
      "motor_vehicle": "no",
      "name": "Skyline To The Sea Trail"
    }
  },
  {
    "type": "way",
    "id": 10555530,
    "center": {
      "lat": 37.2350486,
      "lon": -122.1451358
    },
    "tags": {
      "access": "permissive",
      "foot": "yes",
      "highway": "track",
      "name": "Beekhius Road Trail"
    }
  },
  {
    "type": "way",
    "id": 10584362,
    "center": {
      "lat": 37.8698731,
      "lon": -122.2237824
    },
    "tags": {
      "bicycle": "no",
      "foot": "yes",
      "highway": "path",
      "motorcar": "no",
      "motorcycle": "no",
      "name": "Summit House Trail",
      "surface": "dirt",
      "tracktype": "grade4"
    }
  },
  {
    "type": "way",
    "id": 10584371,
    "center": {
      "lat": 37.8690862,
      "lon": -122.2198073
    },
    "tags": {
      "access": "yes",
      "bicycle": "no",
      "foot": "yes",
      "highway": "path",
      "horse": "no",
      "name": "Summit House Trail",
      "surface": "ground",
      "width": "1m"
    }
  },
  {
    "type": "way",
    "id": 10584868,
    "center": {
      "lat": 37.8640243,
      "lon": -122.2239698
    },
    "tags": {
      "bicycle": "no",
      "highway": "path",
      "name": "Gwin Canyon Trail",
      "surface": "ground"
    }
  },
  {
    "type": "way",
    "id": 11041926,
    "center": {
      "lat": 37.9131422,
      "lon": -122.2600654
    },
    "tags": {
      "bicycle": "no",
      "fixme": "more accurate toward south end (has longer switchbacks)",
      "highway": "path",
      "horse": "no",
      "name": "Pine Tree Trail",
      "surface": "ground"
    }
  },
  {
    "type": "way",
    "id": 11041928,
    "center": {
      "lat": 37.9110054,
      "lon": -122.2675589
    },
    "tags": {
      "bicycle": "no",
      "highway": "path",
      "horse": "no",
      "name": "Lower Packrat Trail",
      "sac_scale": "hiking",
      "surface": "ground"
    }
  },
  {
    "type": "way",
    "id": 11042296,
    "center": {
      "lat": 37.9103983,
      "lon": -122.2644847
    },
    "tags": {
      "bicycle": "no",
      "highway": "path",
      "name": "Laurel Canyon Trail",
      "surface": "ground"
    }
  },
  {
    "type": "way",
    "id": 11042298,
    "center": {
      "lat": 37.9116365,
      "lon": -122.2625812
    },
    "tags": {
      "bicycle": "no",
      "highway": "path",
      "horse": "no",
      "name": "Laurel Canyon Trail",
      "surface": "ground"
    }
  },
  {
    "type": "way",
    "id": 11042470,
    "center": {
      "lat": 37.910157,
      "lon": -122.2621214
    },
    "tags": {
      "highway": "path",
      "motorcar": "no",
      "motorcycle": "no",
      "name": "New Woodland Group Camp Trail"
    }
  },
  {
    "type": "way",
    "id": 11042471,
    "center": {
      "lat": 37.9104635,
      "lon": -122.2615377
    },
    "tags": {
      "highway": "path",
      "motor_vehicle": "no",
      "motorcar": "no",
      "motorcycle": "no",
      "name": "Wildcat View Group Camp Trail"
    }
  },
  {
    "type": "way",
    "id": 12169986,
    "center": {
      "lat": 38.0812768,
      "lon": -122.587942
    },
    "tags": {
      "highway": "track",
      "motor_vehicle": "private",
      "name": "Indian Valley Trail",
      "tiger:cfcc": "A45",
      "tiger:county": "Marin, CA",
      "tiger:reviewed": "no"
    }
  },
  {
    "type": "way",
    "id": 12170005,
    "center": {
      "lat": 37.9300809,
      "lon": -122.5594335
    },
    "tags": {
      "highway": "track",
      "motor_vehicle": "no",
      "name": "Horseshoe Fire Road",
      "tiger:cfcc": "A41",
      "tiger:county": "Marin, CA",
      "tiger:reviewed": "no"
    }
  },
  {
    "type": "way",
    "id": 12170212,
    "center": {
      "lat": 37.9840288,
      "lon": -122.48878
    },
    "tags": {
      "highway": "track",
      "motor_vehicle": "no",
      "name": "Gold Hill Fire Road",
      "tiger:cfcc": "A41",
      "tiger:county": "Marin, CA",
      "tiger:reviewed": "no"
    }
  },
  {
    "type": "way",
    "id": 12170330,
    "center": {
      "lat": 38.0618085,
      "lon": -122.6081207
    },
    "tags": {
      "access": "private",
      "highway": "track",
      "name": "Big Rock Ridge Fire Road",
      "tiger:cfcc": "A41",
      "tiger:county": "Marin, CA"
    }
  },
  {
    "type": "way",
    "id": 12170451,
    "center": {
      "lat": 37.8375405,
      "lon": -122.543621
    },
    "tags": {
      "dog": "yes",
      "highway": "track",
      "motor_vehicle": "no",
      "name": "Coastal Trail",
      "surface": "asphalt",
      "tiger:cfcc": "A41",
      "tiger:county": "Marin, CA",
      "tiger:reviewed": "no",
      "tracktype": "grade2"
    }
  },
  {
    "type": "way",
    "id": 12170456,
    "center": {
      "lat": 37.8356273,
      "lon": -122.5434223
    },
    "tags": {
      "bicycle": "yes",
      "dog": "yes",
      "foot": "yes",
      "highway": "track",
      "horse": "no",
      "motor_vehicle": "no",
      "name": "Coastal Trail",
      "sidewalk": "no",
      "smoothness": "intermediate",
      "surface": "asphalt",
      "tiger:cfcc": "A41",
      "tiger:county": "Marin, CA",
      "tracktype": "grade1"
    }
  },
  {
    "type": "way",
    "id": 12170569,
    "center": {
      "lat": 37.826905,
      "lon": -122.5315201
    },
    "tags": {
      "bicycle": "yes",
      "foot": "yes",
      "highway": "path",
      "horse": "yes",
      "motor_vehicle": "no",
      "name": "Batteries Loop Trail",
      "tiger:cfcc": "A41",
      "tiger:county": "Marin, CA",
      "tiger:reviewed": "no"
    }
  },
  {
    "type": "way",
    "id": 12170897,
    "center": {
      "lat": 37.928303,
      "lon": -122.5819504
    },
    "tags": {
      "foot": "yes",
      "highway": "track",
      "motorcar": "no",
      "name": "Eldridge Grade Fire Road",
      "surface": "unpaved",
      "tiger:cfcc": "A41",
      "tiger:county": "Marin, CA",
      "tiger:reviewed": "no"
    }
  },
  {
    "type": "way",
    "id": 12171316,
    "center": {
      "lat": 37.8645099,
      "lon": -122.5514855
    },
    "tags": {
      "bicycle": "yes",
      "foot": "yes",
      "highway": "track",
      "horse": "yes",
      "motor_vehicle": "no",
      "name": "Coyote Ridge Trail",
      "sidewalk": "no",
      "tiger:cfcc": "A41",
      "tiger:county": "Marin, CA",
      "tiger:reviewed": "no"
    }
  },
  {
    "type": "way",
    "id": 12171354,
    "center": {
      "lat": 37.8943001,
      "lon": -122.6313713
    },
    "tags": {
      "bicycle": "no",
      "highway": "path",
      "horse": "no",
      "name": "Dipsea Trail",
      "operator": "Mount Tamalpais State Park",
      "surface": "dirt",
      "tiger:cfcc": "A41",
      "tiger:county": "Marin, CA",
      "tiger:name_base": "Dipsea",
      "tiger:name_type": "Trl",
      "tiger:reviewed": "no"
    }
  },
  {
    "type": "way",
    "id": 12171464,
    "center": {
      "lat": 38.0197494,
      "lon": -122.5597813
    },
    "tags": {
      "dog": "unleashed",
      "highway": "track",
      "name": "Springs Hill Fire Road"
    }
  },
  {
    "type": "way",
    "id": 12171471,
    "center": {
      "lat": 38.144975,
      "lon": -122.593012
    },
    "tags": {
      "highway": "track",
      "motor_vehicle": "no",
      "name": "Burdell Mountain Fire Road",
      "surface": "paved"
    }
  },
  {
    "type": "way",
    "id": 12171659,
    "center": {
      "lat": 37.9290187,
      "lon": -122.5556714
    },
    "tags": {
      "highway": "track",
      "motor_vehicle": "no",
      "name": "H Line Fire Road",
      "tiger:cfcc": "A41",
      "tiger:county": "Marin, CA",
      "tiger:reviewed": "no"
    }
  },
  {
    "type": "way",
    "id": 12171661,
    "center": {
      "lat": 37.9251445,
      "lon": -122.5563928
    },
    "tags": {
      "highway": "track",
      "motor_vehicle": "no",
      "name": "H Line Fire Road",
      "smoothness": "bad",
      "surface": "gravel",
      "tracktype": "grade2"
    }
  },
  {
    "type": "way",
    "id": 12171900,
    "center": {
      "lat": 38.0273763,
      "lon": -122.6742791
    },
    "tags": {
      "access": "permissive",
      "bicycle": "permissive",
      "highway": "track",
      "horse": "allowed",
      "motor_vehicle": "no",
      "name": "Barnabe Mountain Fire Road",
      "note": "name per Marin Open Space District map",
      "source": "survey",
      "tiger:cfcc": "A51",
      "tiger:county": "Marin, CA",
      "tiger:name_base": "Dixon Ridge Fire Road",
      "tiger:reviewed": "no"
    }
  },
  {
    "type": "way",
    "id": 12171922,
    "center": {
      "lat": 37.9173898,
      "lon": -122.5287595
    },
    "tags": {
      "highway": "track",
      "motor_vehicle": "no",
      "name": "Octopus Access Fire Road",
      "source": "survey"
    }
  },
  {
    "type": "way",
    "id": 12171996,
    "center": {
      "lat": 37.9874368,
      "lon": -122.4961498
    },
    "tags": {
      "highway": "track",
      "motor_vehicle": "no",
      "name": "Gold Hill Fire Road",
      "tiger:cfcc": "A41",
      "tiger:county": "Marin, CA",
      "tiger:reviewed": "no"
    }
  },
  {
    "type": "way",
    "id": 12172069,
    "center": {
      "lat": 37.8524402,
      "lon": -122.5249611
    },
    "tags": {
      "bicycle": "no",
      "foot": "yes",
      "highway": "track",
      "horse": "yes",
      "motor_vehicle": "no",
      "name": "Miwok Trail",
      "sidewalk": "no",
      "surface": "unpaved",
      "tiger:cfcc": "A41",
      "tiger:county": "Marin, CA",
      "tiger:reviewed": "no",
      "tracktype": "grade2"
    }
  },
  {
    "type": "way",
    "id": 12172464,
    "center": {
      "lat": 38.0432794,
      "lon": -122.6231845
    },
    "tags": {
      "highway": "track",
      "name": "Loma Alta Fire Road",
      "tiger:cfcc": "A41",
      "tiger:county": "Marin, CA",
      "tiger:name_base": "Loma Alta Fire Road",
      "tiger:reviewed": "no"
    }
  },
  {
    "type": "way",
    "id": 12172479,
    "center": {
      "lat": 37.8570911,
      "lon": -122.5467718
    },
    "tags": {
      "bicycle": "no",
      "foot": "yes",
      "highway": "track",
      "horse": "yes",
      "motor_vehicle": "no",
      "name": "Fox Trail",
      "sidewalk": "no",
      "surface": "dirt",
      "tiger:cfcc": "A41",
      "tiger:county": "Marin, CA",
      "tracktype": "grade2"
    }
  },
  {
    "type": "way",
    "id": 12172676,
    "center": {
      "lat": 37.9527429,
      "lon": -122.6024367
    },
    "tags": {
      "bicycle": "no",
      "foot": "designated",
      "highway": "footway",
      "horse": "no",
      "name": "Pine Point Trail",
      "tiger:cfcc": "A51",
      "tiger:county": "Marin, CA"
    }
  },
  {
    "type": "way",
    "id": 12172804,
    "center": {
      "lat": 37.8668561,
      "lon": -122.562881
    },
    "tags": {
      "bicycle": "no",
      "foot": "yes",
      "highway": "track",
      "horse": "yes",
      "motor_vehicle": "no",
      "name": "Green Gulch Trail",
      "sidewalk": "no",
      "tiger:cfcc": "A41",
      "tiger:county": "Marin, CA",
      "tiger:reviewed": "no"
    }
  },
  {
    "type": "way",
    "id": 12172858,
    "center": {
      "lat": 38.0166669,
      "lon": -122.5754785
    },
    "tags": {
      "highway": "track",
      "name": "Terra Linda Ridge Fire Road",
      "surface": "dirt",
      "tiger:cfcc": "A41",
      "tiger:county": "Marin, CA",
      "tiger:name_base": "Nunes Fire Road",
      "tiger:reviewed": "no"
    }
  },
  {
    "type": "way",
    "id": 12172874,
    "center": {
      "lat": 37.8428909,
      "lon": -122.551601
    },
    "tags": {
      "bicycle": "yes",
      "foot": "yes",
      "highway": "path",
      "horse": "yes",
      "motor_vehicle": "no",
      "name": "Tennessee Valley Trail"
    }
  },
  {
    "type": "way",
    "id": 12173331,
    "center": {
      "lat": 37.9351124,
      "lon": -122.6819315
    },
    "tags": {
      "access": "private",
      "highway": "track",
      "motor_vehicle": "no",
      "name": "Zumie Loop Trail",
      "wheelchair": "no"
    }
  },
  {
    "type": "way",
    "id": 12173438,
    "center": {
      "lat": 37.8339692,
      "lon": -122.5228037
    },
    "tags": {
      "bicycle": "yes",
      "foot": "yes",
      "highway": "track",
      "horse": "yes",
      "motor_vehicle": "no",
      "name": "Miwok Trail",
      "sidewalk": "no",
      "surface": "unpaved",
      "tiger:cfcc": "A41",
      "tiger:county": "Marin, CA",
      "tracktype": "grade2"
    }
  },
  {
    "type": "way",
    "id": 12173633,
    "center": {
      "lat": 37.8791764,
      "lon": -122.553888
    },
    "tags": {
      "bicycle": "yes",
      "foot": "yes",
      "highway": "track",
      "horse": "yes",
      "incline": "down",
      "motor_vehicle": "no",
      "mtb:scale": "1",
      "name": "Miwok Trail",
      "sidewalk": "no",
      "surface": "unpaved",
      "tiger:cfcc": "A41",
      "tiger:county": "Marin, CA",
      "tiger:reviewed": "no",
      "tracktype": "grade2"
    }
  },
  {
    "type": "way",
    "id": 12174110,
    "center": {
      "lat": 37.8491391,
      "lon": -122.5511265
    },
    "tags": {
      "bicycle": "yes",
      "dog": "yes",
      "highway": "track",
      "horse": "yes",
      "name": "Coastal Trail",
      "surface": "dirt",
      "tracktype": "grade2"
    }
  },
  {
    "type": "way",
    "id": 12174378,
    "center": {
      "lat": 37.910745,
      "lon": -122.6370786
    },
    "tags": {
      "highway": "track",
      "motor_vehicle": "no",
      "name": "Willow Camp Fire Road",
      "surface": "dirt",
      "tiger:cfcc": "A41",
      "tiger:county": "Marin, CA",
      "tiger:name_base": "Willow Camp Fire Road",
      "tiger:reviewed": "no",
      "tracktype": "grade2"
    }
  },
  {
    "type": "way",
    "id": 12174713,
    "center": {
      "lat": 37.9935747,
      "lon": -122.6655695
    },
    "tags": {
      "highway": "track",
      "motor_vehicle": "no",
      "name": "Pine Mountain Fire Road",
      "source": "survey",
      "tiger:cfcc": "A51",
      "tiger:county": "Marin, CA",
      "tiger:name_base": "Pine Mountain Fire Road",
      "tiger:reviewed": "no"
    }
  },
  {
    "type": "way",
    "id": 12174743,
    "center": {
      "lat": 37.9843532,
      "lon": -122.6647401
    },
    "tags": {
      "highway": "track",
      "name": "Pine Mountain Fire Road",
      "tiger:cfcc": "A51",
      "tiger:county": "Marin, CA",
      "tiger:name_base": "Pine Mountain Fire Road",
      "tiger:reviewed": "no"
    }
  },
  {
    "type": "way",
    "id": 12174753,
    "center": {
      "lat": 37.99,
      "lon": -122.676659
    },
    "tags": {
      "highway": "track",
      "name": "Pine Mountain Fire Road",
      "tiger:cfcc": "A51",
      "tiger:county": "Marin, CA",
      "tiger:name_base": "Pine Mountain Fire Road",
      "tiger:reviewed": "no"
    }
  },
  {
    "type": "way",
    "id": 12174756,
    "center": {
      "lat": 37.9761843,
      "lon": -122.6406659
    },
    "tags": {
      "highway": "track",
      "name": "Pine Mountain Fire Road",
      "tiger:cfcc": "A51",
      "tiger:county": "Marin, CA",
      "tiger:name_base": "Pine Mountain Fire Road"
    }
  },
  {
    "type": "way",
    "id": 12175190,
    "center": {
      "lat": 37.9910846,
      "lon": -122.524907
    },
    "tags": {
      "highway": "track",
      "motor_vehicle": "no",
      "name": "San Pedo Rdg Fire Road",
      "name_1": "Scettrini Fire Road",
      "tiger:cfcc": "A41",
      "tiger:county": "Marin, CA",
      "tiger:name_base": "San Pedo Rdg Fire Road",
      "tiger:name_base_1": "Scettrini Fire Road",
      "tiger:reviewed": "no"
    }
  },
  {
    "type": "way",
    "id": 12175509,
    "center": {
      "lat": 37.9669328,
      "lon": -122.6072221
    },
    "tags": {
      "highway": "track",
      "motor_vehicle": "no",
      "name": "Bullfrog Fire Road",
      "tiger:cfcc": "A51",
      "tiger:county": "Marin, CA",
      "tiger:name_base": "Bullfrog Fire Road",
      "tiger:reviewed": "no",
      "tracktype": "grade2"
    }
  },
  {
    "type": "way",
    "id": 12175618,
    "center": {
      "lat": 37.9705605,
      "lon": -122.6139426
    },
    "tags": {
      "highway": "track",
      "name": "Meadow Club Road",
      "tiger:cfcc": "A41",
      "tiger:county": "Marin, CA",
      "tiger:name_base": "Meadow Club",
      "tiger:name_type": "Rd",
      "tiger:reviewed": "no"
    }
  },
  {
    "type": "way",
    "id": 12175794,
    "center": {
      "lat": 38.1045281,
      "lon": -122.6430519
    },
    "tags": {
      "access": "private",
      "highway": "track",
      "motor_vehicle": "yes",
      "name": "Meadow Lane",
      "tiger:cfcc": "A41",
      "tiger:county": "Marin, CA",
      "tiger:name_base": "Meadow",
      "tiger:name_type": "Ln",
      "tiger:reviewed": "no"
    }
  },
  {
    "type": "way",
    "id": 12176502,
    "center": {
      "lat": 37.899897,
      "lon": -122.5597428
    },
    "tags": {
      "bicycle": "yes",
      "highway": "footway",
      "name": "Dipsea Trail",
      "smoothness": "bad",
      "surface": "gravel",
      "tiger:cfcc": "A41",
      "tiger:county": "Marin, CA",
      "tiger:name_base": "Dipsea",
      "tiger:name_type": "Trl",
      "tiger:reviewed": "yes",
      "tracktype": "grade2",
      "width": "1"
    }
  },
  {
    "type": "way",
    "id": 12177213,
    "center": {
      "lat": 37.9247738,
      "lon": -122.5601026
    },
    "tags": {
      "bicycle": "yes",
      "highway": "track",
      "motor_vehicle": "no",
      "name": "Old Railroad Grade Fire Road",
      "surface": "gravel",
      "tiger:cfcc": "A41",
      "tiger:county": "Marin, CA",
      "tiger:name_base": "Summit",
      "tiger:name_type": "Ave"
    }
  },
  {
    "type": "way",
    "id": 12177688,
    "center": {
      "lat": 37.9456704,
      "lon": -122.578852
    },
    "tags": {
      "highway": "track",
      "motor_vehicle": "no",
      "name": "Eldridge Grade Fire Road",
      "surface": "unpaved",
      "tiger:cfcc": "A51",
      "tiger:county": "Marin, CA",
      "tiger:name_base": "Eldridge Grade Fire Road",
      "tiger:reviewed": "no"
    }
  },
  {
    "type": "way",
    "id": 12177693,
    "center": {
      "lat": 37.932034,
      "lon": -122.5749541
    },
    "tags": {
      "highway": "track",
      "motor_vehicle": "no",
      "name": "Eldridge Grade Fire Road",
      "surface": "unpaved",
      "tiger:cfcc": "A51",
      "tiger:county": "Marin, CA",
      "tiger:name_base": "Eldridge Grade Fire Road",
      "tiger:reviewed": "no"
    }
  },
  {
    "type": "way",
    "id": 12177988,
    "center": {
      "lat": 37.9475709,
      "lon": -122.6114342
    },
    "tags": {
      "highway": "track",
      "motor_vehicle": "no",
      "name": "Rocky Ridge Fire Road",
      "tiger:cfcc": "A51",
      "tiger:county": "Marin, CA",
      "tiger:name_base": "Rocky Ridge Fire Road"
    }
  },
  {
    "type": "way",
    "id": 12178002,
    "center": {
      "lat": 38.003252,
      "lon": -122.7083702
    },
    "tags": {
      "highway": "track",
      "motor_vehicle": "no",
      "name": "Peters Dam Fire Road",
      "source": "survey",
      "tiger:cfcc": "A51",
      "tiger:county": "Marin, CA",
      "tiger:name_base": "Peters Dam Fire Road"
    }
  },
  {
    "type": "way",
    "id": 12178416,
    "center": {
      "lat": 37.9971532,
      "lon": -122.6520049
    },
    "tags": {
      "highway": "track",
      "motor_vehicle": "no",
      "name": "San Geronimo Ridge Road",
      "tiger:cfcc": "A51",
      "tiger:county": "Marin, CA",
      "tiger:name_base": "San Geronimo Ridge",
      "tiger:name_type": "Rd"
    }
  },
  {
    "type": "way",
    "id": 12178430,
    "center": {
      "lat": 38.0007313,
      "lon": -122.6830591
    },
    "tags": {
      "highway": "track",
      "motor_vehicle": "no",
      "name": "San Geronimo Ridge Road",
      "source": "survey",
      "tiger:cfcc": "A51",
      "tiger:county": "Marin, CA",
      "tiger:name_base": "San Geronimo Ridge",
      "tiger:name_type": "Rd",
      "tiger:reviewed": "no"
    }
  },
  {
    "type": "way",
    "id": 12178433,
    "center": {
      "lat": 38.0033671,
      "lon": -122.7047374
    },
    "tags": {
      "highway": "track",
      "motor_vehicle": "no",
      "name": "San Geronimo Ridge Road",
      "note": "modified per survey",
      "source": "survey",
      "tiger:cfcc": "A51",
      "tiger:county": "Marin, CA",
      "tiger:name_base": "San Geronimo Ridge"
    }
  },
  {
    "type": "way",
    "id": 12178742,
    "center": {
      "lat": 37.9588535,
      "lon": -122.6416033
    },
    "tags": {
      "highway": "track",
      "motor_vehicle": "no",
      "name": "Oat Hill Fire Road",
      "tiger:cfcc": "A51",
      "tiger:county": "Marin, CA",
      "tiger:name_base": "Oat Hill Fire Road",
      "tiger:reviewed": "no"
    }
  },
  {
    "type": "way",
    "id": 12179715,
    "center": {
      "lat": 37.9647057,
      "lon": -122.6580913
    },
    "tags": {
      "highway": "track",
      "motor_vehicle": "no",
      "name": "Old Vee Fire Road",
      "tiger:cfcc": "A51",
      "tiger:county": "Marin, CA",
      "tiger:name_base": "Old Vee Fire Road",
      "tiger:reviewed": "no"
    }
  },
  {
    "type": "way",
    "id": 12179749,
    "center": {
      "lat": 38.0431152,
      "lon": -122.5889614
    },
    "tags": {
      "highway": "track",
      "name": "Luiz Fire Road",
      "tiger:cfcc": "A51",
      "tiger:county": "Marin, CA",
      "tiger:name_base": "Luiz Fire Road",
      "tiger:reviewed": "no"
    }
  },
  {
    "type": "way",
    "id": 12180919,
    "center": {
      "lat": 37.9933101,
      "lon": -122.5564888
    },
    "tags": {
      "highway": "track",
      "name": "Ridgewood Fire Road",
      "surface": "gravel",
      "tiger:cfcc": "A41",
      "tiger:county": "Marin, CA",
      "tiger:name_base": "Ridgewood Fire Road",
      "tiger:reviewed": "no"
    }
  },
  {
    "type": "way",
    "id": 12181044,
    "center": {
      "lat": 37.922645,
      "lon": -122.5811685
    },
    "tags": {
      "bicycle": "yes",
      "highway": "track",
      "motor_vehicle": "no",
      "name": "Old Railroad Grade Fire Road",
      "source": "TIGER;GPS survey;Bing imagery",
      "surface": "dirt",
      "tiger:cfcc": "A41;A51",
      "tiger:county": "Marin, CA",
      "tiger:name_base": "Railroad Grade;Railroad Grade Fire Road;Gravity Car",
      "tiger:name_type": "Rd"
    }
  },
  {
    "type": "way",
    "id": 12181173,
    "center": {
      "lat": 38.0269347,
      "lon": -122.6013511
    },
    "tags": {
      "bicycle": "yes",
      "highway": "track",
      "name": "680 Trail",
      "tiger:cfcc": "A51",
      "tiger:county": "Marin, CA",
      "tiger:name_base": "Loma Alta Fire Road",
      "tiger:reviewed": "no"
    }
  },
  {
    "type": "way",
    "id": 12181179,
    "center": {
      "lat": 38.0254013,
      "lon": -122.6191525
    },
    "tags": {
      "highway": "track",
      "motor_vehicle": "no",
      "name": "Loma Alta Fire Road(N)/Sunrise Fire Road(S)",
      "tiger:cfcc": "A41",
      "tiger:county": "Marin, CA",
      "tiger:name_base": "Loma Alta Fire Road",
      "tiger:reviewed": "no"
    }
  },
  {
    "type": "way",
    "id": 12181415,
    "center": {
      "lat": 37.9833297,
      "lon": -122.6333791
    },
    "tags": {
      "highway": "track",
      "motor_vehicle": "no",
      "name": "Cascade Fire Road / Repack",
      "tiger:cfcc": "A51",
      "tiger:county": "Marin, CA",
      "tiger:name_base": "Cascade Fire Road",
      "tiger:reviewed": "no"
    }
  },
  {
    "type": "way",
    "id": 12181943,
    "center": {
      "lat": 37.9165745,
      "lon": -122.5628411
    },
    "tags": {
      "highway": "track",
      "name": "Myrtle Avenue Firetrail",
      "tiger:cfcc": "A41",
      "tiger:county": "Marin, CA",
      "tiger:name_base": "Myrtle",
      "tiger:name_type": "Ave",
      "tiger:reviewed": "no"
    }
  },
  {
    "type": "way",
    "id": 12182161,
    "center": {
      "lat": 37.9344324,
      "lon": -122.609039
    },
    "tags": {
      "highway": "track",
      "name": "Lagoon Fire Road",
      "tiger:cfcc": "A41",
      "tiger:county": "Marin, CA",
      "tiger:name_base": "Lagoon Fire Road",
      "tiger:reviewed": "no"
    }
  },
  {
    "type": "way",
    "id": 12182199,
    "center": {
      "lat": 37.9233494,
      "lon": -122.6163703
    },